WKT,SA22018_V1_00,SA22018_V1_NAME,LAND_AREA_SQ_KM,AREA_SQ_KM,EASTING,NORTHING,LATITUDE,LONGITUDE,Shape_X,Shape_Y
"POINT (1579396.0812 6181775.2488)",100100,North Cape,826.78512205,826.78512205,1579396.08115,6181775.2488,-34.50545276,172.77554997,1579396.0812,6181775.2488
"POINT (1612554.6505 6136232.7661)",100200,Rangaunu Harbour,272.10405305,272.10405305,1612554.6505,6136232.76615,-34.91627744,173.13744282,1612554.6505,6136232.7661
"POINT (1705412.8722 6102111.0264)",100300,Inlets Far North District,0,625.97275382,1705412.87215,6102111.0264,-35.21850133,174.15824941,1705412.8722,6102111.0264
"POINT (1634562.5745 6127415.055)",100400,Karikari Peninsula,174.18081591,174.18081591,1634562.57445,6127415.05495,-34.99527816,173.37873836,1634562.5745,6127415.055
"POINT (1619918.067 6113278.3712)",100500,Tangonge,177.20434269,177.20434269,1619918.06695,6113278.3712,-35.12314727,173.21860407,1619918.067,6113278.3712
"POINT (1614655.6119 6109255.0259)",100600,Ahipara,4.5292775,4.5292775,1614655.61185,6109255.02585,-35.15951697,173.16091938,1614655.6119,6109255.0259
"POINT (1624073.0286 6115410.045)",100700,Kaitaia East,5.26631029,5.26631029,1624073.02855,6115410.04495,-35.10383477,173.26414302,1624073.0286,6115410.045
"POINT (1624343.9204 6113419.0176)",100800,Kaitaia West,3.21185052,3.21185052,1624343.92035,6113419.01755,-35.1217817,173.26717397,1624343.9204,6113419.0176
"POINT (1628355.363 6112734.3932)",100900,Rangitihi,84.66042662,84.66042662,1628355.363,6112734.3932,-35.12785001,173.3112224,1628355.363,6112734.3932
"POINT (1642075.2483 6123164.914)",101000,Oruru-Parapara,103.28072757,103.28072757,1642075.24825,6123164.91395,-35.03331749,173.46127559,1642075.2483,6123164.914
"POINT (1646334.5359 6127202.1685)",101100,Taumarumaru,10.2297234,10.2297234,1646334.53585,6127202.16855,-34.99672682,173.50774402,1646334.5359,6127202.1685
"POINT (1633904.2861 6105862.4712)",101200,Herekino-Takahue,303.69091784,303.69091784,1633904.28605,6105862.4712,-35.18964254,173.37240745,1633904.2861,6105862.4712
"POINT (1640831.6432 6113105.2011)",101300,Peria,199.69058441,199.69058441,1640831.64315,6113105.20105,-35.12407747,173.44813792,1640831.6432,6113105.2011
"POINT (1652809.9381 6123992.4508)",101400,Taemaro-Oruaiti,156.73427166,156.73427166,1652809.93805,6123992.4508,-35.02535123,173.57890377,1652809.9381,6123992.4508
"POINT (1660463.4437 6121224.8387)",101500,Whakapaku,200.87343203,200.87343203,1660463.4437,6121224.8387,-35.04987698,173.66299855,1660463.4437,6121224.8387
"POINT (1630740.6285 6086036.9)",101600,Hokianga North,345.93522228,345.93522228,1630740.62845,6086036.9,-35.36850897,173.33840098,1630740.6285,6086036.9
"POINT (1642157.0152 6094690.1174)",101700,Kohukohu-Broadwood,209.19924258,209.19924258,1642157.01515,6094690.1174,-35.29006863,173.46362668,1642157.0152,6094690.1174
"POINT (1677497.5451 6119649.8363)",101800,Whakarara,169.49143734,169.49143734,1677497.5451,6119649.8363,-35.0629133,173.84991312,1677497.5451,6119649.8363
"POINT (1667702.3839 6109614.3951)",101900,Kaeo,255.57977504,255.57977504,1667702.38385,6109614.39505,-35.15410315,173.74331968,1667702.3839,6109614.3951
"POINT (1656177.3855 6094804.9782)",102000,Omahuta Forest-Horeke,463.54915239,463.54915239,1656177.3855,6094804.97815,-35.28834375,173.61780248,1656177.3855,6094804.9782
"POINT (1643948.1421 6074946.1727)",102100,Hokianga South,126.08745475,126.08745475,1643948.14205,6074946.17265,-35.46801387,173.48438703,1643948.1421,6074946.1727
"POINT (1678789.7548 6106356.0226)",102200,Lake Manuwai-Kapiro,59.06085734,59.06085734,1678789.75475,6106356.02255,-35.18267324,173.86535013,1678789.7548,6106356.0226
"POINT (1671911.4646 6094885.3557)",102300,Okaihau,147.59027666,160.01971243,1671911.4646,6094885.3557,-35.28661159,173.79081555,1671911.4646,6094885.3557
"POINT (1685559.532 6111672.7895)",102400,Rangitane-Purerua,123.18645582,123.18645582,1685559.53205,6111672.7895,-35.13418331,173.9391431,1685559.532,6111672.7895
"POINT (1683593.3947 6103289.3631)",102500,Waipapa,9.15899721,9.15899721,1683593.3947,6103289.36305,-35.2099338,173.91841396,1683593.3947,6103289.3631
"POINT (1682176.1845 6098662.9188)",102600,Puketotara,55.26424098,55.26424098,1682176.1845,6098662.9188,-35.2517628,173.90330753,1682176.1845,6098662.9188
"POINT (1657103.1515 6072747.7433)",102700,Waima Forest,236.99516982,236.99516982,1657103.15145,6072747.7433,-35.48716638,173.62952632,1657103.1515,6072747.7433
"POINT (1687602.2238 6103459.2968)",102800,Riverview,6.21930008,6.21930008,1687602.2238,6103459.29685,-35.20805962,173.9624342,1687602.2238,6103459.2968
"POINT (1646329.2604 6062371.3166)",102900,Waipoua Forest,277.80801476,277.80801476,1646329.2604,6062371.3166,-35.58128435,173.51134902,1646329.2604,6062371.3166
"POINT (1686540.0073 6101582.4649)",103000,Kerikeri Central,3.71173696,3.71173696,1686540.0073,6101582.46485,-35.22507309,173.95096304,1686540.0073,6101582.4649
"POINT (1687138.248 6099211.3497)",103100,Kerikeri South,15.46843227,15.46843227,1687138.24795,6099211.34965,-35.24639884,173.9577874,1687138.248,6099211.3497
"POINT (1678149.0902 6089443.304)",103200,Ohaeawai-Waimate North,87.40452306,87.40452306,1678149.0902,6089443.304,-35.33520904,173.85992372,1678149.0902,6089443.304
"POINT (1691027.9822 6095455.082)",103300,Puketona-Waitangi,156.38492968,156.38492968,1691027.9822,6095455.082,-35.27991822,174.00095246,1691027.9822,6095455.082
"POINT (1669478.8209 6079795.7968)",103400,Ngapuhi,175.39009407,175.39009407,1669478.82095,6079795.79675,-35.4228326,173.76534835,1669478.8209,6079795.7968
"POINT (1672426.8724 6081426.043)",103500,Kaikohe,5.67512268,5.67512268,1672426.8724,6081426.04295,-35.40792422,173.79767516,1672426.8724,6081426.043
"POINT (1689431.8739 6085760.3368)",103600,Pakaraka,72.33748195,72.33748195,1689431.87385,6085760.33675,-35.36746635,173.98446287,1689431.8739,6085760.3368
"POINT (1696327.144 6095465.6992)",103700,Haruru,1.52772435,1.52772435,1696327.144,6095465.6992,-35.27932636,174.05921268,1696327.144,6095465.6992
"POINT (1702290.3296 6097927.8352)",103800,Russell,3.27931477,3.27931477,1702290.32955,6097927.8352,-35.25653762,174.12446613,1702290.3296,6097927.8352
"POINT (1699402.4066 6094681.1088)",103900,Paihia,2.2421089,2.2421089,1699402.40655,6094681.1088,-35.28609895,174.09311792,1699402.4066,6094681.1088
"POINT (1672999.1358 6065978.4669)",104000,Mataraua Forest,272.9269353,272.9269353,1672999.13575,6065978.46685,-35.54715526,173.80536516,1672999.1358,6065978.4669
"POINT (1686407.6311 6071747.7597)",104100,Matawaia-Taumarere,410.6837121,410.6837121,1686407.6311,6071747.7597,-35.49406405,173.95266307,1686407.6311,6071747.7597
"POINT (1705691.1918 6094532.8277)",104200,Russell Peninsula,26.20135237,26.20135237,1705691.19175,6094532.8277,-35.28679106,174.16228184,1705691.1918,6094532.8277
"POINT (1699985.5716 6090614.5372)",104300,Opua (Far North District),5.62247307,5.62247307,1699985.5716,6090614.5372,-35.32270229,174.10002605,1699985.5716,6090614.5372
"POINT (1711378.574 6085368.234)",104400,Russell Forest-Rawhiti,191.37950948,191.37950948,1711378.574,6085368.234,-35.36879174,174.22606034,1711378.574,6085368.234
"POINT (1693111.3557 6083919.9213)",104500,Moerewa,1.87566952,1.87566952,1693111.35565,6083919.92125,-35.38372176,174.02517066,1693111.3557,6083919.9213
"POINT (1697711.5911 6084397.408)",104600,Kawakawa,1.73247964,1.73247964,1697711.5911,6084397.408,-35.37897674,174.07575504,1697711.5911,6084397.408
"POINT (1703540.6805 6073319.553)",104700,Maromaku,238.30862311,238.30862311,1703540.68045,6073319.553,-35.47825535,174.1413276,1703540.6805,6073319.553
"POINT (1690731.954 6054073.0274)",104800,Mangakahia-Hukerenui,658.54706101,658.54706101,1690731.954,6054073.02735,-35.65301955,174.0023164,1690731.954,6054073.0274
"POINT (1721095.0401 6071805.3417)",104900,Whangaruru,469.35201031,469.35201031,1721095.0401,6071805.3417,-35.48991999,174.3350113,1721095.0401,6071805.3417
"POINT (1722356.1878 6085012.2931)",105000,Inlets other Whangarei District,0,39.02456944,1722356.1878,6085012.2931,-35.370714,174.34692727,1722356.1878,6085012.2931
"POINT (1709501.6599 6052279.0307)",105100,Matarau,108.38593904,108.38593904,1709501.6599,6052279.03065,-35.66728748,174.20987157,1709501.6599,6052279.0307
"POINT (1716603.0205 6060265.3993)",105200,Hikurangi,4.0002501,4.0002501,1716603.02045,6060265.3993,-35.5944828,174.28716175,1716603.0205,6060265.3993
"POINT (1716506.553 6056388.2593)",105300,Kauri,56.10398784,56.10398784,1716506.55295,6056388.25925,-35.62944367,174.28665672,1716506.553,6056388.2593
"POINT (1704387.7144 6041826.8268)",105400,Maungatapere,174.47962567,174.47962567,1704387.71435,6041826.82675,-35.76206371,174.15473729,1704387.7144,6041826.8268
"POINT (1717209.459 6051872.6716)",105500,Kamo West,4.49900752,4.49900752,1717209.45895,6051872.67155,-35.67006476,174.29507452,1717209.459,6051872.6716
"POINT (1733888.359 6059640.3206)",105600,Matapouri-Tutukaka,78.46534341,78.46534341,1733888.359,6059640.3206,-35.59792832,174.47802227,1733888.359,6059640.3206
"POINT (1727003.2922 6054324.7915)",105700,Kiripaka,72.06743057,72.06743057,1727003.2922,6054324.79145,-35.64674958,174.40287423,1727003.2922,6054324.7915
"POINT (1718531.5152 6051033.3223)",105800,Kamo East,1.42716225,1.42716225,1718531.51515,6051033.3223,-35.67747272,174.30980246,1718531.5152,6051033.3223
"POINT (1717178.6089 6049644.807)",105900,Granfield Reserve,1.66090904,1.66090904,1717178.60885,6049644.80695,-35.69015065,174.29505823,1717178.6089,6049644.807
"POINT (1718078.3531 6050219.5446)",106000,Kamo Central,1.09354706,1.09354706,1718078.35305,6050219.5446,-35.68486255,174.30491552,1718078.3531,6050219.5446
"POINT (1717223.8601 6047974.585)",106100,Whau Valley,7.18025885,7.18025885,1717223.8601,6047974.585,-35.70520079,174.29580182,1717223.8601,6047974.585
"POINT (1719725.175 6050642.5042)",106200,Tikipunga North,2.74100722,2.74100722,1719725.17495,6050642.5042,-35.68085136,174.32304772,1719725.175,6050642.5042
"POINT (1713476.1134 6043447.606)",106300,Pukenui,19.19103565,19.19103565,1713476.11335,6043447.60605,-35.74644668,174.25502298,1713476.1134,6043447.606
"POINT (1719222.6634 6049268.4777)",106400,Otangarei,1.03955837,1.03955837,1719222.66335,6049268.47775,-35.69329776,174.31769963,1719222.6634,6049268.4777
"POINT (1720484.3659 6049109.5032)",106500,Tikipunga South,2.74033953,2.74033953,1720484.3659,6049109.50315,-35.69457731,174.33166497,1720484.3659,6049109.5032
"POINT (1718345.8072 6047083.2269)",106600,Kensington (Whangarei District),3.11118529,3.11118529,1718345.8072,6047083.22685,-35.71310137,174.30833235,1718345.8072,6047083.2269
"POINT (1723144.9311 6048028.7427)",106700,Abbey Caves-Glenbervie,32.11865017,32.11865017,1723144.9311,6048028.74265,-35.70399025,174.36122936,1723144.9311,6048028.7427
"POINT (1719803.5126 6048016.3196)",106800,Mairtown,0.94419075,0.94419075,1719803.51255,6048016.31955,-35.70451425,174.32430453,1719803.5126,6048016.3196
"POINT (1716685.3432 6044390.563)",106900,Maunu-Horahora,4.29745554,4.29745554,1716685.3432,6044390.56295,-35.73757136,174.29037127,1716685.3432,6044390.563
"POINT (1718435.569 6045536.2537)",107000,Woodhill-Vinetown,1.38522205,1.38522205,1718435.56895,6045536.25365,-35.727035,174.30955264,1718435.569,6045536.2537
"POINT (1719767.5343 6045359.1823)",107100,Whangarei Central,2.81299371,2.81299371,1719767.5343,6045359.1823,-35.72846995,174.32430322,1719767.5343,6045359.1823
"POINT (1721158.8975 6045615.0001)",107200,Riverside,3.50780578,3.50780578,1721158.8975,6045615.0001,-35.72599375,174.33964555,1721158.8975,6045615.0001
"POINT (1717444.5161 6043036.3363)",107300,Raumanga,3.46035972,3.46035972,1717444.5161,6043036.33625,-35.74968804,174.29896302,1717444.5161,6043036.3363
"POINT (1718367.0816 6043895.7743)",107400,Tarewa,0.94067805,0.94067805,1718367.08155,6043895.7743,-35.7418305,174.30903757,1718367.0816,6043895.7743
"POINT (1719371.6494 6044486.1214)",107500,Morningside (Whangarei District),1.20188251,1.20188251,1719371.6494,6044486.12135,-35.73638776,174.32005673,1719371.6494,6044486.1214
"POINT (1737169.4837 6056628.5375)",107600,Ngunguru,3.56520869,3.56520869,1737169.48365,6056628.53745,-35.62462501,174.51474389,1737169.4837,6056628.5375
"POINT (1716204.7035 6039573.701)",107700,Otaika-Portland,41.34127459,41.34127459,1716204.70345,6039573.70095,-35.78104758,174.2857558,1716204.7035,6039573.701
"POINT (1709737.7061 6026916.311)",107800,Oakleigh-Mangapai,323.78100653,323.78100653,1709737.7061,6026916.311,-35.89588695,174.21595621,1709737.7061,6026916.311
"POINT (1720319.454 6043043.7785)",107900,Port-Limeburners,7.41161121,7.41161121,1720319.454,6043043.77845,-35.74927345,174.33075178,1720319.454,6043043.7785
"POINT (1729192.1068 6048723.6773)",108000,Pataua,128.58726061,128.58726061,1729192.1068,6048723.67735,-35.69695195,174.42794425,1729192.1068,6048723.6773
"POINT (1724098.2649 6042637.6936)",108100,Onerahi Park,1.9996437,1.9996437,1724098.2649,6042637.69355,-35.75246425,174.37259829,1724098.2649,6042637.6936
"POINT (1723128.4135 6043070.6712)",108200,Sherwood Rise,1.30633937,1.30633937,1723128.4135,6043070.6712,-35.7486834,174.3618074,1723128.4135,6043070.6712
"POINT (1723256.9152 6041128.3423)",108300,Onerahi,2.29421222,2.29421222,1723256.91515,6041128.3423,-35.76617497,174.363527,1723256.9152,6041128.3423
"POINT (1727467.5637 6037121.1912)",108400,Inlet Whangarei Harbour,0,103.17545034,1727467.5637,6037121.1912,-35.80175652,174.41073294,1727467.5637,6037121.1912
"POINT (1729106.402 6041728.0661)",108500,Parua Bay,39.0954391,39.0954391,1729106.40195,6041728.0661,-35.76001844,174.42812257,1729106.402,6041728.0661
"POINT (1724865.4843 6024598.1133)",108600,Bream Bay,235.31798384,235.31798384,1724865.48425,6024598.11325,-35.91496801,174.38390319,1724865.4843,6024598.1133
"POINT (1734277.11 6032395.3797)",108700,Marsden Bay,6.10249454,6.10249454,1734277.11,6032395.3797,-35.84344323,174.48686898,1734277.11,6032395.3797
"POINT (1731546.0545 6028525.2169)",108800,Ruakaka,15.79852036,15.79852036,1731546.05455,6028525.21685,-35.87869623,174.45727498,1731546.0545,6028525.2169
"POINT (1738749.3898 6035023.7356)",108900,Bream Head,52.18004192,52.18004192,1738749.38975,6035023.73555,-35.81913112,174.53591875,1738749.3898,6035023.7356
"POINT (1730708.3725 6011384.0135)",109000,Waipu,136.59458638,136.59458638,1730708.37245,6011384.01345,-36.03330412,174.45082085,1730708.3725,6011384.0135
"POINT (1658895.5358 6045913.0658)",109100,Kaipara Coastal,1248.06198971,1248.06198971,1658895.53575,6045913.06575,-35.72900181,173.65124289,1658895.5358,6045913.0658
"POINT (1687641.1909 6029262.8286)",109200,Maungaru,691.9661207,691.9661207,1687641.19085,6029262.82865,-35.87696287,173.97089153,1687641.1909,6029262.8286
"POINT (1678042.8082 6022449.0702)",109300,Dargaville,12.55839585,12.55839585,1678042.8082,6022449.07015,-35.93920158,173.86524045,1678042.8082,6022449.0702
"POINT (1703222.5507 6006040.8644)",109400,Ruawai-Matakohe,530.44403267,530.44403267,1703222.55065,6006040.8644,-36.08477059,174.14649781,1703222.5507,6006040.8644
"POINT (1718959.6135 5992366.3283)",109500,Otamatea (Kaipara District),244.89158927,244.89158927,1718959.61345,5992366.32825,-36.20622411,174.32331996,1718959.6135,5992366.3283
"POINT (1721231.7843 6003063.6784)",109600,Maungaturoto,21.59969701,21.59969701,1721231.7843,6003063.6784,-36.10952458,174.34693916,1721231.7843,6003063.6784
"POINT (1727617.9059 5992773.8721)",109700,Kaiwaka,259.02591836,259.02591836,1727617.90595,5992773.8721,-36.20144738,174.41954369,1727617.9059,5992773.8721
"POINT (1739097.8832 6001925.9395)",109800,Mangawhai Rural,91.18003775,91.18003775,1739097.8832,6001925.93945,-36.11738276,174.54557961,1739097.8832,6001925.9395
"POINT (1742603.3887 6004417.3813)",109900,Mangawhai Heads,6.98889597,6.98889597,1742603.3887,6004417.3813,-36.09442027,174.58406666,1742603.3887,6004417.3813
"POINT (1743434.8557 6001794.594)",110000,Inlet Mangawhai Harbour,0,5.86889674,1743434.85565,6001794.59395,-36.11793515,174.59377708,1743434.8557,6001794.594
"POINT (1741866.2306 6001051.4766)",110100,Mangawhai,1.99427586,1.99427586,1741866.2306,6001051.4766,-36.12486297,174.57648718,1741866.2306,6001051.4766
"POINT (1732707.7611 5979971.6364)",110200,Okahukura Peninsula,211.18081304,211.18081304,1732707.76105,5979971.63635,-36.31614337,174.47831639,1732707.7611,5979971.6364
"POINT (1718879.0116 5964914.6109)",110300,Inlet Kaipara Harbour South,0,391.72449421,1718879.01155,5964914.61085,-36.45365718,174.32661216,1718879.0116,5964914.6109
"POINT (1746115.6376 5986614.5461)",110400,Cape Rodney,370.64774254,370.64774254,1746115.63755,5986614.5461,-36.25433822,174.62638047,1746115.6376,5986614.5461
"POINT (1736627.742 5982495.6469)",110500,Wellsford,4.55282827,4.55282827,1736627.74195,5982495.6469,-36.2928483,174.52152782,1736627.742,5982495.6469
"POINT (1794808.5129 5983761.3101)",110600,Oceanic Auckland Region East,0,7823.24088442,1794808.5129,5983761.3101,-36.27144929,175.16877457,1794808.5129,5983761.3101
"POINT (1717382.5173 5949415.471)",110700,South Head,339.79389712,339.79389712,1717382.5173,5949415.471,-36.59353204,174.31227374,1717382.5173,5949415.471
"POINT (1733398.6439 5963611.9362)",110800,Kaipara Hills,282.59738123,282.59738123,1733398.64385,5963611.93615,-36.46348663,174.48881947,1733398.6439,5963611.9362
"POINT (1751367.6542 5976910.488)",110900,Dome Valley-Matakana,84.7499658,84.7499658,1751367.65415,5976910.488,-36.34097815,174.68669921,1751367.6542,5976910.488
"POINT (1715555.5138 5915112.2665)",111000,Oceanic Auckland Region West,0,2384.01250114,1715555.51375,5915112.26645,-36.90291297,174.29704734,1715555.5138,5915112.2665
"POINT (1748126.6341 5971645.0836)",111100,Warkworth West,11.35975247,11.35975247,1748126.63405,5971645.08355,-36.38893228,174.65160073,1748126.6341,5971645.0836
"POINT (1745569.8 5962858.0183)",111200,Puhoi Valley,236.52996459,236.52996459,1745569.8,5962858.01835,-36.46850912,174.62475233,1745569.8,5962858.0183
"POINT (1749558.9781 5969805.6033)",111300,Warkworth East,4.21863402,4.21863402,1749558.97805,5969805.60325,-36.40528692,174.66791942,1749558.9781,5969805.6033
"POINT (1752320.2081 5970590.6033)",111400,Sandspit,22.43923564,22.43923564,1752320.2081,5970590.60325,-36.39777901,174.69854725,1752320.2081,5970590.6033
"POINT (1760751.8061 5973969.0797)",111500,Tawharanui Peninsula,46.6707281,46.6707281,1760751.80615,5973969.07965,-36.36596181,174.79183013,1760751.8061,5973969.0797
"POINT (1732723.8705 5948092.4107)",111600,Te Kuru,80.93043952,80.93043952,1732723.87045,5948092.4107,-36.60344402,174.48396116,1732723.8705,5948092.4107
"POINT (1754664.9923 5968056.2661)",111700,Snells Beach,3.82725987,3.82725987,1754664.9923,5968056.26615,-36.42024184,174.72518871,1754664.9923,5968056.2661
"POINT (1817857.9742 5991024.6205)",111800,Barrier Islands,320.4141008,320.4141008,1817857.97415,5991024.6205,-36.20109801,175.42316367,1817857.9742,5991024.6205
"POINT (1756466.4494 5963948.4922)",111900,Algies Bay-Scotts Landing,15.36828354,15.36828354,1756466.4494,5963948.49215,-36.45696537,174.74610372,1756466.4494,5963948.4922
"POINT (1816354.1321 5983026.2655)",112000,Inlets other Auckland,0,123.16892795,1816354.1321,5983026.2655,-36.27348144,175.40866062,1816354.1321,5983026.2655
"POINT (1739863.6782 5950009.9052)",112100,Wainui-Waiwera,78.7150854,78.7150854,1739863.6782,5950009.90515,-36.58514355,174.56341509,1739863.6782,5950009.9052
"POINT (1728343.4571 5942145.9004)",112200,Parakai,1.45487644,1.45487644,1728343.45705,5942145.9004,-36.65763462,174.43599289,1728343.4571,5942145.9004
"POINT (1733962.3473 5942960.0163)",112300,Helensville Rural,56.91997862,56.91997862,1733962.3473,5942960.0163,-36.64952348,174.4986995,1733962.3473,5942960.0163
"POINT (1729946.3976 5940198.2722)",112400,Helensville,3.36590766,3.36590766,1729946.3976,5940198.2722,-36.67496915,174.45425272,1729946.3976,5940198.2722
"POINT (1741630.8133 5944187.9736)",112500,Waitoki,40.75529776,40.75529776,1741630.81325,5944187.9736,-36.63734759,174.58423463,1741630.8133,5944187.9736
"POINT (1735379.8688 5936238.8997)",112600,Waikoukou Valley,52.8545831,52.8545831,1735379.86875,5936238.8997,-36.70989198,174.51574111,1735379.8688,5936238.8997
"POINT (1749932.1087 5950290.2042)",112700,Orewa North,3.0420543,3.0420543,1749932.10865,5950290.20415,-36.58108865,174.67586463,1749932.1087,5950290.2042
"POINT (1751160.7656 5951497.0794)",112800,Hatfields Beach,0.92325487,0.92325487,1751160.7656,5951497.07935,-36.57001949,174.68935557,1751160.7656,5951497.0794
"POINT (1750802.0188 5949271.0348)",112900,Orewa South,2.31160628,2.31160628,1750802.0188,5949271.0348,-36.59013546,174.685784,1750802.0188,5949271.0348
"POINT (1751583.1692 5949575.8682)",113000,Orewa Central,1.45284321,1.45284321,1751583.16915,5949575.8682,-36.58726477,174.6944528,1751583.1692,5949575.8682
"POINT (1749571.5786 5948031.5638)",113100,Millwater North,1.75217359,1.75217359,1749571.5786,5948031.5638,-36.6014983,174.67227556,1749571.5786,5948031.5638
"POINT (1726776.8372 5928693.2391)",113200,Waipatukahu,52.05879697,52.05879697,1726776.8372,5928693.2391,-36.77908114,174.42070067,1726776.8372,5928693.2391
"POINT (1749347.9364 5946835.6316)",113300,Millwater South,2.41113494,2.41113494,1749347.93635,5946835.63155,-36.61231012,174.67000848,1749347.9364,5946835.6316
"POINT (1747831.251 5943268.0678)",113400,Dairy Flat North,22.96899967,22.96899967,1747831.25095,5943268.0678,-36.6446947,174.65374224,1747831.251,5943268.0678
"POINT (1744668.2197 5940402.3217)",113500,Dairy Flat West,30.97978859,30.97978859,1744668.2197,5940402.32165,-36.67100483,174.61891208,1744668.2197,5940402.3217
"POINT (1750836.3368 5947502.7499)",113600,Kingsway,0.9031104,0.9031104,1750836.3368,5947502.74985,-36.60606427,174.68651435,1750836.3368,5947502.7499
"POINT (1740592.2844 5935628.2609)",113700,Riverhead Forest,48.42763587,48.42763587,1740592.28435,5935628.26085,-36.71463745,174.57419307,1740592.2844,5935628.2609
"POINT (1749765.4955 5945528.8582)",113800,Silverdale Central (Auckland),3.36140307,3.36140307,1749765.4955,5945528.85815,-36.62402013,174.6749306,1749765.4955,5945528.8582
"POINT (1751626.2469 5946911.1065)",113900,Red Beach West,1.83998367,1.83998367,1751626.24685,5946911.10645,-36.61127031,174.69545963,1751626.2469,5946911.1065
"POINT (1752480.2078 5947489.6098)",114000,Red Beach East,1.56444435,1.56444435,1752480.2078,5947489.60975,-36.60592118,174.70488989,1752480.2078,5947489.6098
"POINT (1751248.6685 5945061.4661)",114100,Silverdale South (Auckland),10.18954365,10.18954365,1751248.66845,5945061.46605,-36.62799753,174.69160348,1751248.6685,5945061.4661
"POINT (1730678.0493 5928465.9103)",114200,Waimauku,5.63314315,5.63314315,1730678.0493,5928465.91025,-36.7805997,174.46444508,1730678.0493,5928465.9103
"POINT (1765547.4738 5927137.3532)",114300,Gulf Islands,66.09614073,66.09614073,1765547.4738,5927137.35315,-36.787119,174.85533201,1765547.4738,5927137.3532
"POINT (1753632.5079 5946132.6535)",114400,Vipond,1.38113819,1.38113819,1753632.5079,5946132.6535,-36.61796366,174.7180399,1753632.5079,5946132.6535
"POINT (1727461.1229 5923559.8498)",114500,Muriwai,3.01225115,3.01225115,1727461.1229,5923559.84975,-36.82525102,174.42922639,1727461.1229,5923559.8498
"POINT (1754445.4297 5945558.9365)",114600,Stanmore Bay West,0.98684481,0.98684481,1754445.42965,5945558.93645,-36.62300197,174.72724226,1754445.4297,5945558.9365
"POINT (1735737.9139 5927300.4741)",114700,Kumeu Rural West,24.43335565,24.43335565,1735737.91385,5927300.4741,-36.79039063,174.52133836,1735737.9139,5927300.4741
"POINT (1752809.4182 5940692.8519)",114800,Okura Bush,28.98872701,28.98872701,1752809.4182,5940692.8519,-36.66711378,174.70992257,1752809.4182,5940692.8519
"POINT (1754985.2046 5944038.4467)",114900,Whangaparoa Central,3.6915778,3.6915778,1754985.20455,5944038.4467,-36.63661523,174.73358327,1754985.2046,5944038.4467
"POINT (1737695.371 5929533.7473)",115000,Kumeu-Huapai,6.3210669,6.3210669,1737695.37095,5929533.7473,-36.76998293,174.54286666,1737695.371,5929533.7473
"POINT (1755731.2799 5944833.8599)",115100,Stanmore Bay East,1.33781837,1.33781837,1755731.2799,5944833.8599,-36.6293262,174.74176363,1755731.2799,5944833.8599
"POINT (1756727.8664 5944367.4746)",115200,Manly West,1.0323979,1.0323979,1756727.86635,5944367.4746,-36.63336524,174.75300037,1756727.8664,5944367.4746
"POINT (1731136.3021 5924116.4463)",115300,Muriwai Valley-Bethells Beach,35.35470719,35.35470719,1731136.30205,5924116.4463,-36.8197327,174.47032818,1731136.3021,5924116.4463
"POINT (1758911.6886 5946183.5858)",115400,Tindalls-Matakatia,2.93347637,2.93347637,1758911.68855,5946183.5858,-36.61663904,174.77704003,1758911.6886,5946183.5858
"POINT (1746755.0096 5934629.0876)",115500,Coatesville,24.36637718,24.36637718,1746755.0096,5934629.0876,-36.72270876,174.64336292,1746755.0096,5934629.0876
"POINT (1750005.0679 5937580.8266)",115600,Dairy Flat South,15.21709972,15.21709972,1750005.0679,5937580.8266,-36.6956027,174.67916408,1750005.0679,5937580.8266
"POINT (1760455.5092 5946947.5527)",115700,Gulf Harbour North,1.75709588,1.75709588,1760455.50915,5946947.55265,-36.60949658,174.79413674,1760455.5092,5946947.5527
"POINT (1757468.8425 5944351.1788)",115800,Manly East,1.57463079,1.57463079,1757468.8425,5944351.17875,-36.63338986,174.76128799,1757468.8425,5944351.1788
"POINT (1741362.7254 5930792.1267)",115900,Riverhead,4.05197196,4.05197196,1741362.72535,5930792.12665,-36.75810331,174.58371179,1741362.7254,5930792.1267
"POINT (1763069.3753 5947386.4881)",116000,Army Bay,6.21560447,6.21560447,1763069.3753,5947386.4881,-36.60509803,174.82325733,1763069.3753,5947386.4881
"POINT (1740512.836 5928755.6776)",116100,Kumeu Rural East,14.92218201,14.92218201,1740512.83595,5928755.67755,-36.77658085,174.57456886,1740512.836,5928755.6776
"POINT (1760591.9542 5945424.6593)",116200,Gulf Harbour South,2.42885442,2.67530904,1760591.95415,5945424.6593,-36.62319574,174.79598006,1760591.9542,5945424.6593
"POINT (1744236.6815 5931080.4568)",116300,Paremoremo West,9.47118767,9.47118767,1744236.6815,5931080.45675,-36.75507226,174.61584322,1744236.6815,5931080.4568
"POINT (1738618.1784 5923785.6584)",116400,Taupaki,27.20363525,27.20363525,1738618.17835,5923785.65835,-36.82164682,174.5542496,1738618.1784,5923785.6584
"POINT (1754833.352 5938176.2042)",116500,Long Bay,2.78715748,2.78715748,1754833.35195,5938176.2042,-36.68946348,174.73306962,1754833.352,5938176.2042
"POINT (1748207.0337 5931595.3496)",116600,Paremoremo East,11.60727229,11.60727229,1748207.03365,5931595.3496,-36.74982031,174.66020526,1748207.0337,5931595.3496
"POINT (1751287.9079 5935076.6011)",116700,Albany Heights,3.10401049,3.10401049,1751287.90785,5935076.60115,-36.71796472,174.69401393,1751287.9079,5935076.6011
"POINT (1754299.5963 5937027.5981)",116800,Awaruku,1.52194123,1.52194123,1754299.59625,5937027.59805,-36.69990012,174.72732927,1754299.5963,5937027.5981
"POINT (1753337.8267 5935915.8904)",116900,Fairview Heights,1.60195262,1.60195262,1753337.8267,5935915.8904,-36.71007322,174.71678985,1753337.8267,5935915.8904
"POINT (1744666.7539 5927016.5122)",117000,Whenuapai,19.68007147,19.68007147,1744666.75385,5927016.51215,-36.79162758,174.62143068,1744666.7539,5927016.5122
"POINT (1733646.0161 5915306.9275)",117100,Waitakere Ranges North,86.79304966,86.79304966,1733646.01615,5915306.9275,-36.89876888,174.50001,1733646.0161,5915306.9275
"POINT (1756417.6046 5937519.2007)",117200,Torbay,1.43387594,1.43387594,1756417.60455,5937519.20065,-36.69512414,174.75092916,1756417.6046,5937519.2007
"POINT (1752234.194 5933923.7267)",117300,Albany Central,3.21005397,3.21005397,1752234.19395,5933923.72665,-36.72820186,174.70483518,1752234.194,5933923.7267
"POINT (1750694.0964 5932478.8368)",117400,Albany West,2.05684939,2.05684939,1750694.09635,5932478.8368,-36.7414674,174.68787988,1750694.0964,5932478.8368
"POINT (1755477.9144 5936850.5582)",117500,Glamorgan,0.95916761,0.95916761,1755477.9144,5936850.5582,-36.70130329,174.7405506,1755477.9144,5936850.5582
"POINT (1753796.7338 5935185.6595)",117600,Oteha East,0.7675859,0.7675859,1753796.7338,5935185.65945,-36.71657898,174.72207262,1753796.7338,5935185.6595
"POINT (1754583.2689 5935717.6728)",117700,Northcross,1.07045666,1.07045666,1754583.26885,5935717.6728,-36.71165743,174.7307683,1754583.2689,5935717.6728
"POINT (1753320.9127 5934585.1133)",117800,Oteha West,0.52993903,0.52993903,1753320.9127,5934585.1133,-36.72206732,174.71686745,1753320.9127,5934585.1133
"POINT (1755810.7069 5936251.1051)",117900,Waiake,1.24892146,1.24892146,1755810.70695,5936251.1051,-36.70665026,174.7443967,1755810.7069,5936251.1051
"POINT (1737349.0404 5919885.2841)",118000,Waitakere,15.29077813,15.29077813,1737349.0404,5919885.2841,-36.85697982,174.54072919,1737349.0404,5919885.2841
"POINT (1752629.0717 5932737.9405)",118100,Albany South,1.48565737,1.48565737,1752629.0717,5932737.9405,-36.73882334,174.70949248,1752629.0717,5932737.9405
"POINT (1754489.5649 5934594.9411)",118200,Browns Bay South West,1.15033555,1.15033555,1754489.56485,5934594.9411,-36.72178932,174.72994649,1754489.5649,5934594.9411
"POINT (1755694.0503 5935406.9459)",118300,Browns Bay Central,1.18361569,1.18361569,1755694.0503,5935406.94585,-36.71427585,174.74326307,1755694.0503,5935406.9459
"POINT (1750579.5057 5930842.2636)",118400,Schnapper Rock,2.21506546,2.21506546,1750579.50565,5930842.26355,-36.75623258,174.68691977,1750579.5057,5930842.2636
"POINT (1753906.6108 5933545.9107)",118500,Pinehill,1.62934248,1.62934248,1753906.6108,5933545.9107,-36.73133656,174.72363265,1753906.6108,5933545.9107
"POINT (1753108.632 5931899.0926)",118600,North Harbour,5.48639767,5.48639767,1753108.632,5931899.09255,-36.74630474,174.71502975,1753108.632,5931899.0926
"POINT (1755176.5514 5934253.0953)",118700,Browns Bay South East,0.85629308,0.85629308,1755176.5514,5934253.0953,-36.72475755,174.73770545,1755176.5514,5934253.0953
"POINT (1743226.922 5924488.4679)",118800,Westgate Central,1.8634158,1.8634158,1743226.922,5924488.46785,-36.81462711,174.60577445,1743226.922,5924488.4679
"POINT (1749352.1879 5928943.7457)",118900,Greenhithe West,2.72201146,2.72201146,1749352.1879,5928943.74565,-36.77353411,174.67354745,1749352.1879,5928943.7457
"POINT (1756035.3101 5934371.032)",119000,Rothesay Bay,0.86585503,0.86585503,1756035.31005,5934371.032,-36.7235541,174.74729392,1756035.3101,5934371.032
"POINT (1750778.8426 5929965.2892)",119100,Greenhithe East,1.4377182,1.4377182,1750778.84255,5929965.28915,-36.7641032,174.68932537,1750778.8426,5929965.2892
"POINT (1745229.936 5924982.9193)",119200,Hobsonville,2.17407942,2.17407942,1745229.936,5924982.9193,-36.80986626,174.62812848,1745229.936,5924982.9193
"POINT (1752033.6043 5921718.4926)",119300,Inlet Waitemata Harbour,0,79.36815183,1752033.6043,5921718.4926,-36.83821248,174.70502503,1752033.6043,5921718.4926
"POINT (1751208.5738 5929123.3359)",119400,Greenhithe South,3.64452286,3.64452286,1751208.5738,5929123.3359,-36.77162145,174.69430513,1751208.5738,5929123.3359
"POINT (1755523.3829 5933467.5887)",119500,Murrays Bay West,0.95565783,0.95565783,1755523.38285,5933467.5887,-36.73177873,174.74174762,1755523.3829,5933467.5887
"POINT (1743394.9463 5923100.6272)",119600,Westgate South,1.70943132,1.70943132,1743394.94625,5923100.62715,-36.82710769,174.60791923,1743394.9463,5923100.6272
"POINT (1754965.8283 5932592.8187)",119700,Windsor Park,0.8358418,0.8358418,1754965.8283,5932592.81865,-36.73975221,174.73568351,1754965.8283,5932592.8187
"POINT (1744714.7497 5924008.361)",119800,West Harbour West,1.96049692,1.96049692,1744714.74965,5924008.361,-36.81872701,174.62254037,1744714.7497,5924008.361
"POINT (1752750.9521 5930511.7084)",119900,Unsworth Heights West,0.74886125,0.74886125,1752750.95205,5930511.7084,-36.75886381,174.71130257,1752750.9521,5930511.7084
"POINT (1756406.4589 5933534.5438)",120000,Murrays Bay East,0.69854186,0.69854186,1756406.45885,5933534.54375,-36.7310303,174.75161954,1756406.4589,5933534.5438
"POINT (1741457.1374 5920525.4689)",120100,Birdwood West,5.93628175,5.93628175,1741457.1374,5920525.4689,-36.85060481,174.58667717,1741457.1374,5920525.4689
"POINT (1748251.704 5926368.0659)",120200,Hobsonville Point,3.53881189,3.53881189,1748251.704,5926368.06585,-36.79691625,174.66172203,1748251.704,5926368.0659
"POINT (1746023.7206 5924894.5531)",120300,West Harbour Clearwater Cove,1.35746453,1.67756469,1746023.7206,5924894.5531,-36.81054038,174.63704103,1746023.7206,5924894.5531
"POINT (1753512.7051 5930812.2789)",120400,Unsworth Heights East,1.10807496,1.10807496,1753512.7051,5930812.2789,-36.75603242,174.71977269,1753512.7051,5930812.2789
"POINT (1755938.3928 5932704.2223)",120500,Mairangi Bay North,0.92453074,0.92453074,1755938.3928,5932704.22225,-36.73858904,174.74654933,1755938.3928,5932704.2223
"POINT (1743203.243 5921773.202)",120600,Massey Central,0.88452792,0.88452792,1743203.24295,5921773.20195,-36.83909835,174.60602048,1743203.243,5921773.202
"POINT (1746002.26 5924064.4891)",120700,West Harbour Luckens Point,0.9837843,0.9837843,1746002.25995,5924064.4891,-36.81802341,174.63695983,1746002.26,5924064.4891
"POINT (1756114.9898 5932111.2849)",120800,Mairangi Bay South,0.80141814,0.80141814,1756114.98975,5932111.2849,-36.74390273,174.74864765,1756114.9898,5932111.2849
"POINT (1743794.0881 5922295.84)",120900,Massey Royal Road West,0.89641575,0.89641575,1743794.0881,5922295.84,-36.83429912,174.61254552,1743794.0881,5922295.84
"POINT (1752913.7859 5929273.3708)",121000,Bayview East,1.3746752,1.3746752,1752913.78585,5929273.37085,-36.76999591,174.71337437,1752913.7859,5929273.3708
"POINT (1740009.7928 5917165.8161)",121100,Swanson Rural,15.14912979,15.14912979,1740009.7928,5917165.8161,-36.881095,174.57106823,1740009.7928,5917165.8161
"POINT (1754951.8081 5930871.5161)",121200,Sunnynook South,0.80161344,0.80161344,1754951.8081,5930871.51615,-36.75526458,174.73587597,1754951.8081,5930871.5161
"POINT (1755480.0378 5931349.784)",121300,Sunnynook North,0.74464289,0.74464289,1755480.03775,5931349.784,-36.75086862,174.74169364,1755480.0378,5931349.784
"POINT (1752120.8916 5928630.1744)",121400,Bayview West,0.73414884,0.73414884,1752120.89155,5928630.1744,-36.77591921,174.70462204,1752120.8916,5928630.1744
"POINT (1754426.8936 5930393.4106)",121500,Totara Vale North,0.86679243,0.86679243,1754426.8936,5930393.4106,-36.75965827,174.73009473,1754426.8936,5930393.4106
"POINT (1745160.604 5922914.8957)",121600,Royal Heights North,1.4951159,1.4951159,1745160.604,5922914.89565,-36.82851197,174.62774619,1745160.604,5922914.8957
"POINT (1743308.7514 5920574.2697)",121700,Massey West,1.18469773,1.18469773,1743308.7514,5920574.26965,-36.84988607,174.60742952,1743308.7514,5920574.2697
"POINT (1750442.0542 5926733.6702)",121800,Beach Haven West,1.20746209,1.20746209,1750442.05415,5926733.6702,-36.79327636,174.68619139,1750442.0542,5926733.6702
"POINT (1754025.4534 5929715.3812)",121900,Totara Vale South,0.8961397,0.8961397,1754025.45335,5929715.38115,-36.76583308,174.72573604,1754025.4534,5929715.3812
"POINT (1741248.2809 5918942.9896)",122000,Swanson,1.89457019,1.89457019,1741248.28095,5918942.9896,-36.86489607,174.58462975,1741248.2809,5918942.9896
"POINT (1752016.8214 5927959.9918)",122100,Bayview South,0.93345761,0.93345761,1752016.82135,5927959.99175,-36.78197477,174.70359001,1752016.8214,5927959.9918
"POINT (1756784.3714 5931472.4004)",122200,Campbells Bay,1.74294503,1.74294503,1756784.37135,5931472.4004,-36.74954905,174.75627345,1756784.3714,5931472.4004
"POINT (1745198.7462 5922133.3819)",122300,Royal Heights South,1.13131504,1.13131504,1745198.7462,5922133.3819,-36.83554837,174.62832303,1745198.7462,5922133.3819
"POINT (1751103.4936 5926787.8781)",122400,Beach Haven East,1.12103775,1.12103775,1751103.4936,5926787.87805,-36.79268258,174.69359128,1751103.4936,5926787.8781
"POINT (1744492.5388 5921264.8845)",122500,Massey East,1.14447088,1.14447088,1744492.5388,5921264.8845,-36.84348264,174.62057134,1744492.5388,5921264.8845
"POINT (1755899.9074 5930641.3102)",122600,Forrest Hill North,0.73717907,0.73717907,1755899.90735,5930641.3102,-36.75718347,174.7465398,1755899.9074,5930641.3102
"POINT (1754087.6608 5928821.117)",122700,Glenfield North,0.80678426,0.80678426,1754087.6608,5928821.11705,-36.7738809,174.72661346,1754087.6608,5928821.117
"POINT (1751755.7855 5926665.3606)",122800,Birkdale North,1.38573801,1.38573801,1751755.78545,5926665.36055,-36.79368225,174.70092376,1751755.7855,5926665.3606
"POINT (1744095.8701 5920553.9048)",122900,Massey South,1.38681668,1.38681668,1744095.87005,5920553.90475,-36.84994988,174.61625895,1744095.8701,5920553.9048
"POINT (1742824.0784 5919453.5102)",123000,Ranui North,1.02923012,1.02923012,1742824.0784,5919453.51015,-36.86005874,174.60220592,1742824.0784,5919453.5102
"POINT (1753292.26 5927858.5604)",123100,Glenfield West,0.9701519,0.9701519,1753292.26,5927858.56035,-36.78268321,174.71789792,1753292.26,5927858.5604
"POINT (1747044.9531 5923099.7422)",123200,Te Atatu Peninsula North West,1.11259918,1.11259918,1747044.95305,5923099.7422,-36.82655522,174.64883254,1747044.9531,5923099.7422
"POINT (1752832.9163 5927119.4892)",123300,Glenfield South West,1.19104282,1.19104282,1752832.9163,5927119.48915,-36.78941699,174.71290056,1752832.9163,5927119.4892
"POINT (1755750.6966 5929337.2487)",123400,Forrest Hill West,1.23523515,1.23523515,1755750.69655,5929337.24865,-36.76895837,174.7451352,1755750.6966,5929337.2487
"POINT (1754795.0247 5928844.4454)",123500,Wairau Valley,2.56373017,2.56373017,1754795.0247,5928844.44535,-36.77355541,174.73453173,1754795.0247,5928844.4454
"POINT (1756393.4501 5929840.868)",123600,Forrest Hill East,0.92449513,0.92449513,1756393.4501,5929840.86795,-36.76431463,174.7522307,1756393.4501,5929840.868
"POINT (1757254.1358 5930259.5629)",123700,Castor Bay,1.44377056,1.44377056,1757254.1358,5930259.56285,-36.76039959,174.76178337,1757254.1358,5930259.5629
"POINT (1742997.508 5918802.4539)",123800,Ranui Domain,0.87018239,0.87018239,1742997.50795,5918802.4539,-36.86589923,174.60427343,1742997.508,5918802.4539
"POINT (1751128.9525 5925182.1018)",123900,Beach Haven South,1.34039733,1.34039733,1751128.95255,5925182.10175,-36.80714782,174.69419527,1751128.9525,5925182.1018
"POINT (1754000.0679 5927610.45)",124000,Glenfield Central,1.12786017,1.12786017,1754000.06785,5927610.44995,-36.78480405,174.72587699,1754000.0679,5927610.45
"POINT (1731241.0881 5908342.6411)",124100,Piha,5.23830468,5.23830468,1731241.0881,5908342.64105,-36.96186554,174.47423421,1731241.0881,5908342.6411
"POINT (1742064.6067 5918200.769)",124200,Ranui South West,0.73694345,0.73694345,1742064.6067,5918200.769,-36.87146189,174.59392367,1742064.6067,5918200.769
"POINT (1744231.6424 5919519.7075)",124300,Henderson Larnoch,0.96975579,0.96975579,1744231.64235,5919519.7075,-36.85924837,174.61797776,1744231.6424,5919519.7075
"POINT (1752341.76 5925906.9749)",124400,Birkdale South,1.40729671,1.40729671,1752341.76,5925906.97485,-36.80042176,174.70764062,1752341.76,5925906.9749
"POINT (1747286.0476 5922041.0923)",124500,Te Atatu Peninsula Central,1.11370438,1.11370438,1747286.0476,5922041.0923,-36.83605713,174.65174006,1747286.0476,5922041.0923
"POINT (1754786.46 5928100.3067)",124600,Glenfield East,0.61847921,0.61847921,1754786.45995,5928100.3067,-36.78026196,174.73458692,1754786.46,5928100.3067
"POINT (1739794.7584 5914359.4242)",124700,Henderson Valley,15.02367834,15.02367834,1739794.7584,5914359.42415,-36.90641583,174.56917384,1739794.7584,5914359.4242
"POINT (1746837.7087 5920643.2916)",124800,Te Atatu Peninsula West,1.42485167,1.42485167,1746837.7087,5920643.2916,-36.84872236,174.64698422,1746837.7087,5920643.2916
"POINT (1744777.6058 5919449.3697)",124900,Henderson Lincoln West,0.8979807,0.8979807,1744777.60575,5919449.36965,-36.85979867,174.62411351,1744777.6058,5919449.3697
"POINT (1743022.6578 5918137.1598)",125000,Ranui South East,0.94515226,0.94515226,1743022.65775,5918137.15975,-36.87189045,174.6046809,1743022.6578,5918137.1598
"POINT (1745672.9993 5919866.6647)",125100,Henderson Lincoln East,1.94435988,1.94435988,1745672.9993,5919866.66465,-36.85590078,174.63407425,1745672.9993,5919866.6647
"POINT (1752796.6572 5925237.3508)",125200,Birkenhead West,2.26268676,2.26268676,1752796.65715,5925237.35075,-36.80638223,174.71287204,1752796.6572,5925237.3508
"POINT (1747671.0135 5921213.3436)",125300,Te Atatu Peninsula East,1.80961684,1.80961684,1747671.01345,5921213.3436,-36.84345584,174.6562165,1747671.0135,5921213.3436
"POINT (1757090.072 5929053.0179)",125400,Milford West,0.83338076,0.83338076,1757090.072,5929053.0179,-36.77129839,174.76019462,1757090.072,5929053.0179
"POINT (1756487.1798 5928480.2762)",125500,Westlake,0.68702661,0.68702661,1756487.1798,5928480.27615,-36.77655884,174.75355966,1756487.1798,5928480.2762
"POINT (1755588.266 5927000.7991)",125600,Hillcrest North (Auckland),0.979803,0.979803,1755588.266,5927000.7991,-36.79003781,174.74379298,1755588.266,5927000.7991
"POINT (1744724.5078 5918626.1683)",125700,Henderson Lincoln South,1.35507716,1.35507716,1744724.5078,5918626.1683,-36.86722468,174.62367505,1744724.5078,5918626.1683
"POINT (1754190.8827 5926155.1157)",125800,Hillcrest West (Auckland),0.88492421,0.88492421,1754190.88265,5926155.1157,-36.7978865,174.72830919,1754190.8827,5926155.1157
"POINT (1757827.1943 5928989.8885)",125900,Milford Central,0.74357208,0.74357208,1757827.19425,5928989.8885,-36.77174474,174.76846358,1757827.1943,5928989.8885
"POINT (1743057.4325 5917050.4568)",126000,Summerland South,1.33401073,1.33401073,1743057.4325,5917050.4568,-36.88167753,174.6052759,1743057.4325,5917050.4568
"POINT (1743797.408 5917673.0954)",126100,Summerland North,0.85091711,0.85091711,1743797.40795,5917673.0954,-36.87595448,174.61345826,1743797.408,5917673.0954
"POINT (1754902.4255 5926534.2349)",126200,Hillcrest East (Auckland),1.06377776,1.06377776,1754902.4255,5926534.23485,-36.79435426,174.73620436,1754902.4255,5926534.2349
"POINT (1752561.2314 5923911.6282)",126300,Chatswood,3.06591655,3.06591655,1752561.23135,5923911.6282,-36.81836588,174.71049977,1752561.2314,5923911.6282
"POINT (1746381.4824 5918882.0307)",126400,Te Atatu South-Edmonton,1.06450047,1.06450047,1746381.48235,5918882.03065,-36.86466374,174.64220852,1746381.4824,5918882.0307
"POINT (1754046.2061 5925109.1025)",126500,Birkenhead North,1.01193257,1.01193257,1754046.2061,5925109.1025,-36.80733528,174.72689987,1754046.2061,5925109.1025
"POINT (1757140.7567 5927075.4134)",126600,Takapuna West,2.34723641,2.34723641,1757140.7567,5927075.4134,-36.78910918,174.76117008,1757140.7567,5927075.4134
"POINT (1744856.435 5917643.2477)",126700,Henderson North,1.39367119,1.39367119,1744856.43495,5917643.24765,-36.87606154,174.6253423,1744856.435,5917643.2477
"POINT (1757895.9595 5927847.6751)",126800,Takapuna Central,0.98523807,2.05181153,1757895.9595,5927847.67505,-36.78202515,174.76947038,1757895.9595,5927847.6751
"POINT (1743747.507 5916405.9155)",126900,Western Heights (Auckland),1.35847366,1.35847366,1743747.50695,5916405.91545,-36.88738067,174.61313879,1743747.507,5916405.9155
"POINT (1747032.5167 5919143.0716)",127000,Te Atatu South-Central,1.36315269,1.36315269,1747032.51665,5919143.07155,-36.86221041,174.64945896,1747032.5167,5919143.0716
"POINT (1755628.4596 5926017.7008)",127100,Northcote Central (Auckland),0.68691447,0.68691447,1755628.45955,5926017.7008,-36.79888947,174.74444417,1755628.4596,5926017.7008
"POINT (1756531.4793 5926258.0438)",127200,Akoranga,1.16291081,1.16291081,1756531.47925,5926258.04375,-36.79657499,174.75451244,1756531.4793,5926258.0438
"POINT (1755086.3146 5925183.7235)",127300,Northcote South (Auckland),1.1402653,1.1402653,1755086.3146,5925183.7235,-36.80649304,174.7385397,1755086.3146,5925183.7235
"POINT (1754333.1673 5924140.1504)",127400,Birkenhead South,1.36168693,1.36168693,1754333.1673,5924140.15035,-36.81601936,174.73031198,1754333.1673,5924140.1504
"POINT (1745181.9798 5916125.7306)",127500,Henderson Central,2.01570656,2.01570656,1745181.97975,5916125.73055,-36.88968581,174.62928426,1745181.9798,5916125.7306
"POINT (1742040.4508 5912554.2733)",127600,Waiatarua,11.28314106,11.28314106,1742040.45075,5912554.2733,-36.92234659,174.59471127,1742040.4508,5912554.2733
"POINT (1746779.7487 5917826.6047)",127700,Te Atatu South-McLeod North,1.00774866,1.00774866,1746779.74865,5917826.6047,-36.87411227,174.64687905,1746779.7487,5917826.6047
"POINT (1744094.8898 5915859.5603)",127800,Henderson Valley Park,0.74972535,0.74972535,1744094.8898,5915859.56025,-36.8922509,174.61713959,1744094.8898,5915859.5603
"POINT (1746162.796 5917252.0722)",127900,Henderson North East,0.80084123,0.80084123,1746162.796,5917252.0722,-36.87938504,174.6400701,1746162.796,5917252.0722
"POINT (1736611.608 5905211.2368)",128000,Waitakere Ranges South,101.55819574,101.55819574,1736611.60795,5905211.2368,-36.9893191,174.53510888,1736611.608,5905211.2368
"POINT (1756187.0227 5925049.2632)",128100,Northcote Tuff Crater,1.11349965,1.21439161,1756187.02265,5925049.2632,-36.8075236,174.75090118,1756187.0227,5925049.2632
"POINT (1755600.2003 5924106.1132)",128200,Northcote Point (Auckland),1.17316392,1.17316392,1755600.20025,5924106.11315,-36.81611854,174.74451838,1755600.2003,5924106.1132
"POINT (1744424.4076 5915113.4279)",128300,McLaren Park,1.08839966,1.08839966,1744424.4076,5915113.4279,-36.89892389,174.62097855,1744424.4076,5915113.4279
"POINT (1746010.0499 5916437.2129)",128400,Henderson East,0.79307801,0.79307801,1746010.04985,5916437.21285,-36.88675131,174.63851372,1746010.0499,5916437.2129
"POINT (1747056.2446 5917074.6612)",128500,Te Atatu South-McLeod South,1.10520842,1.10520842,1747056.24455,5917074.6612,-36.88084491,174.65012599,1747056.2446,5917074.6612
"POINT (1758898.3943 5926365.0631)",128600,Takapuna South,0.50774882,0.50774882,1758898.3943,5926365.06305,-36.79521645,174.78100858,1758898.3943,5926365.0631
"POINT (1749344.8152 5917033.0484)",128700,Rosebank Peninsula,2.36288135,2.36288135,1749344.81515,5917033.0484,-36.88086056,174.67580445,1749344.8152,5917033.0484
"POINT (1758525.0773 5925771.9773)",128800,Hauraki,1.09537724,1.09537724,1758525.0773,5925771.97725,-36.80062296,174.77694957,1758525.0773,5925771.9773
"POINT (1746937.6274 5915828.7188)",128900,Glendene North,1.40683624,1.40683624,1746937.62745,5915828.71875,-36.89209039,174.64903698,1746937.6274,5915828.7188
"POINT (1745284.3323 5914567.1958)",129000,Sunnyvale West-Parrs Park,0.84167882,0.84167882,1745284.33225,5914567.19575,-36.9037139,174.63073132,1745284.3323,5914567.1958
"POINT (1746343.8553 5915010.4059)",129100,Sunnyvale East,2.66156357,2.66156357,1746343.85525,5915010.40595,-36.89955638,174.64253379,1746343.8553,5915010.4059
"POINT (1751750.765 5918678.6873)",129200,Point Chevalier West,1.37246778,1.37246778,1751750.76495,5918678.6873,-36.86564859,174.70246177,1751750.765,5918678.6873
"POINT (1759517.96 5925247.9904)",129300,Belmont (Auckland),1.15328719,1.15328719,1759517.96,5925247.9904,-36.80517747,174.78818395,1759517.96,5925247.9904
"POINT (1758589.0817 5924273.2201)",129400,Bayswater,1.09694838,1.20490232,1758589.0817,5924273.2201,-36.81411659,174.777979,1758589.0817,5924273.2201
"POINT (1747385.6136 5915285.8412)",129500,Glendene South,1.09858069,1.09858069,1747385.61355,5915285.84115,-36.89691229,174.65416828,1747385.6136,5915285.8412
"POINT (1745096.2472 5913537.6568)",129600,Glen Eden West,1.15452382,1.15452382,1745096.24715,5913537.6568,-36.91301994,174.62881821,1745096.2472,5913537.6568
"POINT (1754393.9806 5920933.3216)",129700,Herne Bay,0.87695477,0.87695477,1754393.9806,5920933.3216,-36.84490477,174.73164481,1754393.9806,5920933.3216
"POINT (1753214.7682 5919899.4266)",129800,Westmere North,0.64508194,0.64508194,1753214.76815,5919899.4266,-36.85441266,174.71863306,1753214.7682,5919899.4266
"POINT (1752789.7392 5918509.9054)",129900,Point Chevalier East,1.38070934,1.38070934,1752789.73915,5918509.90535,-36.86700191,174.71414708,1752789.7392,5918509.9054
"POINT (1743523.1614 5910028.7304)",130000,Oratia,17.19117463,17.19117463,1743523.16135,5910028.7304,-36.94487953,174.61183121,1743523.1614,5910028.7304
"POINT (1745770.0766 5913262.0723)",130100,Glen Eden Rosier,1.2449007,1.2449007,1745770.07655,5913262.07225,-36.91539926,174.63643274,1745770.0766,5913262.0723
"POINT (1755742.1382 5921373.4119)",130200,Saint Marys Bay,0.84151164,1.50811639,1755742.1382,5921373.4119,-36.84071817,174.74666884,1755742.1382,5921373.4119
"POINT (1753542.9977 5919226.4733)",130300,Westmere South-Western Springs,2.02147354,2.02147354,1753542.99765,5919226.4733,-36.86042307,174.72244945,1753542.9977,5919226.4733
"POINT (1754625.6727 5920342.0856)",130400,Ponsonby West,0.65007251,0.65007251,1754625.67265,5920342.08555,-36.85019424,174.73436269,1754625.6727,5920342.0856
"POINT (1748472.7659 5915391.3206)",130500,Kelston North,0.96688836,0.96688836,1748472.7659,5915391.32055,-36.89579137,174.66634449,1748472.7659,5915391.3206
"POINT (1749675.6477 5916119.9004)",130600,Avondale Rosebank,1.02743212,1.02743212,1749675.6477,5916119.90045,-36.88903628,174.67969557,1749675.6477,5916119.9004
"POINT (1760247.8043 5924067.174)",130700,Narrow Neck,1.82165746,1.82165746,1760247.8043,5924067.17395,-36.81569367,174.79661047,1760247.8043,5924067.174
"POINT (1747619.8201 5914086.55)",130800,Glen Eden North,0.73469348,0.73469348,1747619.82005,5914086.54995,-36.90768225,174.6570296,1747619.8201,5914086.55
"POINT (1746377.7055 5913021.0751)",130900,Glen Eden Woodglen,1.30115519,1.30115519,1746377.7055,5913021.07505,-36.9174767,174.64329812,1746377.7055,5913021.0751
"POINT (1748129.6563 5914507.8093)",131000,Kelston South,0.83674883,0.83674883,1748129.6563,5914507.8093,-36.90380643,174.66266792,1748129.6563,5914507.8093
"POINT (1751447.0699 5917149.0308)",131100,Waterview,1.11588506,1.11588506,1751447.06985,5917149.0308,-36.87948054,174.69936142,1751447.0699,5917149.0308
"POINT (1755267.9588 5920198.854)",131200,Ponsonby East,0.70309519,0.70309519,1755267.95875,5920198.85395,-36.85137951,174.74159318,1755267.9588,5920198.854
"POINT (1756737.3193 5921067.5758)",131300,Wynyard-Viaduct,0.60002227,0.71687003,1756737.31935,5921067.57575,-36.8433094,174.75788827,1756737.3193,5921067.5758
"POINT (1759110.0021 5922881.7014)",131400,Stanley Point,0.99187144,0.99187144,1759110.0021,5922881.7014,-36.82656718,174.7841077,1759110.0021,5922881.7014
"POINT (1747247.4116 5913214.0331)",131500,Glen Eden Central,1.24685079,1.24685079,1747247.4116,5913214.0331,-36.91560255,174.65302059,1747247.4116,5913214.0331
"POINT (1754733.3499 5919385.9188)",131600,Grey Lynn North,0.7250584,0.7250584,1754733.34985,5919385.9188,-36.85879216,174.73576481,1754733.3499,5919385.9188
"POINT (1750105.097 5915486.0333)",131700,Avondale West (Auckland),0.7398201,0.7398201,1750105.09695,5915486.0333,-36.89467964,174.6846386,1750105.097,5915486.0333
"POINT (1756053.0344 5920093.299)",131800,Freemans Bay,1.03577817,1.03577817,1756053.03435,5920093.29905,-36.85220128,174.7504171,1756053.0344,5920093.299
"POINT (1752184.6464 5916851.1247)",131900,Mount Albert West,1.39086731,1.39086731,1752184.64635,5916851.12465,-36.88204623,174.70769409,1752184.6464,5916851.1247
"POINT (1751094.434 5916038.264)",132000,Avondale North (Auckland),1.23589539,1.23589539,1751094.43395,5916038.264,-36.88954577,174.69562749,1751094.434,5916038.264
"POINT (1754542.2931 5918764.7023)",132100,Grey Lynn West,0.80088071,0.80088071,1754542.29305,5918764.70225,-36.8644209,174.73374895,1754542.2931,5918764.7023
"POINT (1753086.6753 5917637.4971)",132200,Mount Albert North,1.51386864,1.51386864,1753086.6753,5917637.4971,-36.87481471,174.71765308,1753086.6753,5917637.4971
"POINT (1748955.3845 5914722.8838)",132300,New Lynn North,0.73891938,0.73891938,1748955.3845,5914722.88375,-36.9017384,174.67189036,1748955.3845,5914722.8838
"POINT (1756610.913 5920485.1699)",132400,Victoria Park,0.44829837,0.44829837,1756610.91295,5920485.1699,-36.84857807,174.75659124,1756610.913,5920485.1699
"POINT (1746393.8476 5911719.4434)",132500,Konini,1.97176048,1.97176048,1746393.8476,5911719.44335,-36.92920297,174.64373108,1746393.8476,5911719.4434
"POINT (1748924.8016 5914035.1271)",132600,New Lynn North West,0.68978189,0.68978189,1748924.8016,5914035.1271,-36.90794042,174.67168246,1748924.8016,5914035.1271
"POINT (1757164.8458 5920642.2187)",132700,Hobson Ridge North,0.14928093,0.14928093,1757164.8458,5920642.2187,-36.84707104,174.76276914,1757164.8458,5920642.2187
"POINT (1755658.7683 5919002.0174)",132800,Grey Lynn Central,0.71192692,0.71192692,1755658.76835,5919002.01735,-36.86209925,174.74622031,1755658.7683,5919002.0174
"POINT (1748293.7782 5913323.1048)",132900,Fruitvale,0.85234856,0.85234856,1748293.7782,5913323.1048,-36.91445572,174.66474139,1748293.7782,5913323.1048
"POINT (1760248.1665 5922793.8617)",133000,Devonport,1.07894838,1.07894838,1760248.16645,5922793.8617,-36.82716648,174.79688282,1760248.1665,5922793.8617
"POINT (1751044.3985 5915375.6137)",133100,Avondale Central (Auckland),1.11535228,1.11535228,1751044.3985,5915375.6137,-36.89552468,174.69519827,1751044.3985,5915375.6137
"POINT (1757384.6553 5920563.8007)",133200,Queen Street,0.1684386,0.1684386,1757384.65525,5920563.8007,-36.84774104,174.76524972,1757384.6553,5920563.8007
"POINT (1758388.0355 5920736.2169)",133300,Quay Street-Customs Street,1.21741902,1.21741902,1758388.0355,5920736.2169,-36.84601989,174.77646293,1758388.0355,5920736.2169
"POINT (1756952.1299 5920242.3916)",133400,Hobson Ridge Central,0.0633195,0.0633195,1756952.12985,5920242.3916,-36.85070899,174.76046696,1756952.1299,5920242.3916
"POINT (1756182.2105 5919023.4658)",133500,Grey Lynn East,0.5797935,0.5797935,1756182.21045,5919023.4658,-36.86181959,174.75208551,1756182.2105,5919023.4658
"POINT (1754366.5811 5917801.7715)",133600,Morningside (Auckland),1.09355854,1.09355854,1754366.5811,5917801.7715,-36.87312613,174.73197443,1754366.5811,5917801.7715
"POINT (1757651.9733 5920600.198)",133700,Shortland Street,0.12741288,0.12741288,1757651.97325,5920600.198,-36.84736853,174.76823915,1757651.9733,5920600.198
"POINT (1756737.4304 5919843.3184)",133800,Hobson Ridge South,0.13699998,0.13699998,1756737.4304,5919843.31835,-36.85434043,174.75814216,1756737.4304,5919843.3184
"POINT (1750198.2473 5914063.2917)",133900,New Lynn Central,1.17480021,1.17480021,1750198.2473,5914063.29165,-36.90748467,174.68596571,1750198.2473,5914063.2917
"POINT (1761118.4158 5922973.7659)",134000,Cheltenham,0.81532065,0.81532065,1761118.4158,5922973.7659,-36.82539766,174.80659852,1761118.4158,5922973.7659
"POINT (1757023.2664 5919838.8726)",134100,Queen Street South West,0.22878127,0.22878127,1757023.26635,5919838.87255,-36.85433303,174.76134796,1757023.2664,5919838.8726
"POINT (1753581.3175 5916670.1883)",134200,Mount Albert Central,1.31350682,1.31350682,1753581.3175,5916670.1883,-36.88345034,174.72339665,1753581.3175,5916670.1883
"POINT (1756572.4568 5919333.1082)",134300,Karangahape,0.28481657,0.28481657,1756572.45675,5919333.10825,-36.85896498,174.75639764,1756572.4568,5919333.1082
"POINT (1755609.2522 5918092.5716)",134400,Kingsland,0.77242481,0.77242481,1755609.25215,5918092.5716,-36.87030191,174.74585155,1755609.2522,5918092.5716
"POINT (1757989.8428 5920558.7457)",134500,Anzac Avenue,0.10247702,0.10247702,1757989.84275,5920558.7457,-36.84768561,174.7720357,1757989.8428,5920558.7457
"POINT (1745620.0316 5909795.8754)",134600,Waima-Woodlands Park,3.48409996,3.48409996,1745620.03155,5909795.8754,-36.94665584,174.63541623,1745620.0316,5909795.8754
"POINT (1747471.555 5911670.4689)",134700,Kaurilands,1.46132216,1.46132216,1747471.55505,5911670.4689,-36.92947622,174.65583671,1747471.555,5911670.4689
"POINT (1757717.2352 5920148.1708)",134800,Auckland-University,0.34902817,0.34902817,1757717.23515,5920148.1708,-36.85143057,174.76906469,1757717.2352,5920148.1708
"POINT (1748916.4028 5912926.4001)",134900,New Lynn Seabrook,0.72255597,0.72255597,1748916.4028,5912926.4001,-36.91793217,174.6718063,1748916.4028,5912926.4001
"POINT (1751230.2387 5914502.0642)",135000,Avondale South (Auckland),1.17736514,1.17736514,1751230.23865,5914502.06415,-36.90336613,174.69745753,1751230.2387,5914502.0642
"POINT (1757431.1408 5919758.9454)",135100,Symonds Street North West,0.08720836,0.08720836,1757431.1408,5919758.9454,-36.85498533,174.76593774,1757431.1408,5919758.9454
"POINT (1752990.2661 5916008.1221)",135200,Mount Albert South,0.83111668,0.83111668,1752990.2661,5916008.12205,-36.88951191,174.71690055,1752990.2661,5916008.1221
"POINT (1757195.1588 5919565.5929)",135300,Symonds Street West,0.14523677,0.14523677,1757195.15875,5919565.59285,-36.8567668,174.76333185,1757195.1588,5919565.5929
"POINT (1748404.5317 5912127.6989)",135400,West Lynn,1.22670754,1.22670754,1748404.53165,5912127.6989,-36.92520977,174.66621863,1748404.5317,5912127.6989
"POINT (1752462.5118 5915372.3409)",135500,Owairaka West,0.91844127,0.91844127,1752462.5118,5915372.3409,-36.89532607,174.71110825,1752462.5118,5915372.3409
"POINT (1749857.3616 5913368.435)",135600,New Lynn Central South,0.73948962,0.73948962,1749857.3616,5913368.43495,-36.91380003,174.68227832,1749857.3616,5913368.435
"POINT (1758205.3971 5920269.1589)",135700,The Strand,0.16919215,0.16919215,1758205.3971,5920269.15885,-36.85025882,174.77451266,1758205.3971,5920269.1589
"POINT (1754291.7154 5916839.8734)",135800,St Lukes,0.46193499,0.46193499,1754291.7154,5916839.8734,-36.88180554,174.73133048,1754291.7154,5916839.8734
"POINT (1757469.4292 5919544.6316)",135900,Symonds Street East,0.10348319,0.10348319,1757469.42915,5919544.6316,-36.85691,174.76641149,1757469.4292,5919544.6316
"POINT (1756850.0179 5918699.7068)",136000,Eden Terrace,0.84042414,0.84042414,1756850.01785,5918699.70675,-36.86462613,174.75964083,1756850.0179,5918699.7068
"POINT (1757629.8853 5919184.0966)",136100,Grafton,0.64384001,0.64384001,1757629.8853,5919184.09655,-36.86013178,174.76828549,1757629.8853,5919184.0966
"POINT (1755609.1032 5917597.3198)",136200,Eden Park,0.50617462,0.50617462,1755609.1032,5917597.31975,-36.87476437,174.74595146,1755609.1032,5917597.3198
"POINT (1755057.0493 5916967.2194)",136300,Sandringham North,0.85722097,0.85722097,1755057.04925,5916967.2194,-36.88053268,174.73988878,1755057.0493,5916967.2194
"POINT (1758501.1043 5919538.5133)",136400,Parnell West,1.64924937,1.64924937,1758501.10425,5919538.5133,-36.85679261,174.77798053,1758501.1043,5919538.5133
"POINT (1749892.8976 5912557.4349)",136500,New Lynn South,1.43654054,1.43654054,1749892.8976,5912557.43485,-36.92110202,174.68283768,1749892.8976,5912557.4349
"POINT (1752575.9423 5914586.8116)",136600,New Windsor North,0.86782722,0.86782722,1752575.94225,5914586.81155,-36.90238578,174.71253897,1752575.9423,5914586.8116
"POINT (1747474.79 5909858.0226)",136700,Titirangi South,4.73299752,4.73299752,1747474.79,5909858.02255,-36.94580721,174.65622649,1747474.79,5909858.0226
"POINT (1753391.5646 5915413.726)",136800,Owairaka East,0.4025211,0.4025211,1753391.56455,5915413.72595,-36.89480258,174.7215225,1753391.5646,5915413.726
"POINT (1756200.6797 5917609.624)",136900,Eden Valley,0.58402708,0.58402708,1756200.6797,5917609.62395,-36.87455582,174.75258367,1756200.6797,5917609.624
"POINT (1754503.6431 5916127.302)",137000,Sandringham Central,0.4723102,0.4723102,1754503.6431,5916127.30195,-36.88819147,174.73385278,1754503.6431,5916127.302
"POINT (1751734.4009 5913846.2693)",137100,Glenavon,0.63982835,0.63982835,1751734.4009,5913846.26925,-36.90919425,174.70324553,1751734.4009,5913846.2693
"POINT (1751132.6416 5913265.7332)",137200,Blockhouse Bay North,0.92504226,0.92504226,1751132.64155,5913265.7332,-36.91452187,174.69660926,1751132.6416,5913265.7332
"POINT (1750098.9972 5911978.7916)",137300,Green Bay North,1.03578148,1.03578148,1750098.9972,5911978.7916,-36.92628317,174.68526542,1750098.9972,5911978.7916
"POINT (1759352.6607 5919586.9992)",137400,Parnell East,1.22491492,1.22491492,1759352.6607,5919586.9992,-36.85621249,174.78751844,1759352.6607,5919586.9992
"POINT (1745172.4152 5907815.4952)",137500,Laingholm,4.07829951,4.07829951,1745172.41515,5907815.4952,-36.96456984,174.63077158,1745172.4152,5907815.4952
"POINT (1754221.8338 5915655.0563)",137600,Sandringham West,0.4767622,0.4767622,1754221.83375,5915655.0563,-36.89249272,174.73078769,1754221.8338,5915655.0563
"POINT (1757367.574 5918190.1892)",137700,Mount Eden North East,0.46591267,0.46591267,1757367.57395,5918190.18915,-36.86913097,174.76555025,1757367.574,5918190.1892
"POINT (1756948.4609 5917564.8992)",137800,Mount Eden North,0.87610629,0.87610629,1756948.46085,5917564.8992,-36.8748348,174.76097949,1756948.4609,5917564.8992
"POINT (1753823.7811 5914967.0452)",137900,Wesley West,0.75674571,0.75674571,1753823.7811,5914967.0452,-36.89875702,174.72646197,1753823.7811,5914967.0452
"POINT (1749378.8209 5911192.2471)",138000,Green Bay South,1.25786551,1.25786551,1749378.8209,5911192.2471,-36.93348489,174.67733798,1749378.8209,5911192.2471
"POINT (1755496.2801 5916215.7968)",138100,Balmoral,0.78483197,0.78483197,1755496.28005,5916215.79685,-36.88723106,174.7449694,1755496.2801,5916215.7968
"POINT (1754885.8202 5915570.1786)",138200,Sandringham East,0.71518377,0.71518377,1754885.82015,5915570.17855,-36.89314875,174.73825366,1754885.8202,5915570.1786
"POINT (1752905.1787 5913899.876)",138300,New Windsor South,1.11580579,1.11580579,1752905.1787,5913899.876,-36.90852211,174.71637156,1752905.1787,5913899.876
"POINT (1756270.0508 5916580.0897)",138400,Mount Eden West,0.79122761,0.79122761,1756270.05075,5916580.0897,-36.88382084,174.75357383,1756270.0508,5916580.0897
"POINT (1758395.046 5918236.8355)",138500,Newmarket,1.07489367,1.07489367,1758395.046,5918236.8355,-36.86853889,174.77706299,1758395.046,5918236.8355
"POINT (1752165.5998 5913212.2742)",138600,Blockhouse Bay North East,0.52948071,0.52948071,1752165.5998,5913212.27415,-36.91483741,174.70821128,1752165.5998,5913212.2742
"POINT (1757811.4026 5917313.2519)",138700,Epsom North,1.0762293,1.0762293,1757811.40255,5917313.2519,-36.87695838,174.77070996,1757811.4026,5917313.2519
"POINT (1754214.2303 5913788.7477)",138800,Wesley South,0.68276864,0.68276864,1754214.23025,5913788.74765,-36.90931026,174.73108232,1754214.2303,5913788.7477
"POINT (1751270.1019 5912065.8034)",138900,Blockhouse Bay South,1.67086642,1.67086642,1751270.1019,5912065.80335,-36.92531189,174.6983916,1751270.1019,5912065.8034
"POINT (1756883.2209 5916437.6824)",139000,Mount Eden East,0.76425141,0.76425141,1756883.22085,5916437.6824,-36.88500226,174.760481,1756883.2209,5916437.6824
"POINT (1754491.0812 5914454.5572)",139100,Wesley East,0.60703951,0.60703951,1754491.08115,5914454.55725,-36.90326571,174.73405291,1754491.0812,5914454.5572
"POINT (1761823.8793 5919443.7542)",139200,Orakei West,1.35364764,1.45144851,1761823.87925,5919443.75415,-36.85708312,174.81525702,1761823.8793,5919443.7542
"POINT (1756316.3275 5915791.7119)",139300,Maungawhau,0.73452195,0.73452195,1756316.32755,5915791.7119,-36.89091675,174.75425547,1756316.3275,5915791.7119
"POINT (1759182.03 5918050.2853)",139400,Remuera West,0.87955693,0.87955693,1759182.03,5918050.28535,-36.87008743,174.78592756,1759182.03,5918050.2853
"POINT (1752254.0024 5912519.8854)",139500,Blockhouse Bay East,0.77910259,0.77910259,1752254.0024,5912519.8854,-36.92106193,174.70934256,1752254.0024,5912519.8854
"POINT (1752995.3444 5912676.8341)",139600,Lynfield North,0.94159197,0.94159197,1752995.34435,5912676.83405,-36.91952771,174.71763043,1752995.3444,5912676.8341
"POINT (1755401.9139 5914740.533)",139700,Mount Roskill North,0.95837557,0.95837557,1755401.9139,5914740.53295,-36.90053933,174.7442134,1755401.9139,5914740.533
"POINT (1753749.0215 5913182.9553)",139800,Mount Roskill White Swan,1.04194196,1.04194196,1753749.0215,5913182.95525,-36.91484469,174.72598544,1753749.0215,5913182.9553
"POINT (1756327.0046 5915246.7683)",139900,Mount Eden South,0.87283197,0.87283197,1756327.00455,5915246.76825,-36.89582511,174.75448765,1756327.0046,5915246.7683
"POINT (1759919.6863 5917882.8565)",140000,Remuera Waitaramoa,1.69215353,1.69215353,1759919.68625,5917882.8565,-36.87147136,174.79423523,1759919.6863,5917882.8565
"POINT (1762545.845 5919809.6575)",140100,Orakei East,1.70739051,1.70739051,1762545.845,5919809.6575,-36.85366237,174.82327361,1762545.845,5919809.6575
"POINT (1757719.2532 5916112.8129)",140200,Epsom Central-North,1.10588807,1.10588807,1757719.25315,5916112.81285,-36.88779009,174.76992615,1757719.2532,5916112.8129
"POINT (1758660.2801 5916697.0621)",140300,Mount St John,1.24254315,1.24254315,1758660.28005,5916697.0621,-36.88236812,174.78035947,1758660.2801,5916697.0621
"POINT (1755278.0281 5913825.5591)",140400,Mount Roskill Central North,0.89983995,0.89983995,1755278.02805,5913825.5591,-36.908804,174.74301108,1755278.0281,5913825.5591
"POINT (1760796.9473 5918198.2324)",140500,Remuera North,1.39680508,1.39680508,1760796.9473,5918198.23235,-36.8684808,174.8040065,1760796.9473,5918198.2324
"POINT (1756119.8401 5914445.6969)",140600,Three Kings West,0.6471001,0.6471001,1756119.84005,5914445.6969,-36.90307735,174.75232867,1756119.8401,5914445.6969
"POINT (1754844.9007 5913052.6509)",140700,Mount Roskill Central South,1.20295544,1.20295544,1754844.90065,5913052.65085,-36.91583944,174.73830929,1754844.9007,5913052.6509
"POINT (1757517.9383 5915121.1642)",140800,Epsom Central-South,0.98346492,0.98346492,1757517.9383,5915121.1642,-36.89675875,174.76787408,1757517.9383,5915121.1642
"POINT (1753196.7713 5911495.3234)",140900,Lynfield South,1.57565769,1.57565769,1753196.7713,5911495.32335,-36.93014096,174.72013007,1753196.7713,5911495.3234
"POINT (1759984.4424 5916442.8424)",141000,Remuera South,1.42912557,1.42912557,1759984.4424,5916442.8424,-36.88443518,174.79526521,1759984.4424,5916442.8424
"POINT (1763352.61 5919561.8488)",141100,Mission Bay,1.54574692,1.54574692,1763352.61,5919561.84875,-36.855756,174.83237219,1763352.61,5919561.8488
"POINT (1756658.4785 5914301.0641)",141200,Three Kings East,0.67406907,0.67406907,1756658.4785,5914301.06405,-36.90429123,174.75840181,1756658.4785,5914301.0641
"POINT (1754094.9204 5912105.8486)",141300,Mount Roskill South,1.12961152,1.12961152,1754094.9204,5912105.8486,-36.92449342,174.73008619,1754094.9204,5912105.8486
"POINT (1752844.4149 5898956.1484)",141400,Inlet Manukau Harbour,0,374.64232155,1752844.4149,5898956.14835,-37.04318103,174.718716,1752844.4149,5898956.1484
"POINT (1758446.3137 5915266.9247)",141500,Epsom East,1.26821039,1.26821039,1758446.3137,5915266.9247,-36.89528995,174.7782585,1758446.3137,5915266.9247
"POINT (1760811.2871 5917203.2621)",141600,Remuera Waiata,0.94346871,0.94346871,1760811.28705,5917203.26205,-36.87744319,174.80437822,1760811.2871,5917203.2621
"POINT (1757355.0094 5914276.5442)",141700,Epsom South,0.59629985,0.59629985,1757355.0094,5914276.5442,-36.90439621,174.7662217,1757355.0094,5914276.5442
"POINT (1764110.5983 5919328.1762)",141800,Kohimarama,1.51293355,1.51293355,1764110.59825,5919328.17625,-36.85773003,174.84092129,1764110.5983,5919328.1762
"POINT (1762732.6033 5918041.4508)",141900,Meadowbank West,1.04159595,1.04159595,1762732.60325,5918041.4508,-36.86956185,174.8257466,1762732.6033,5918041.4508
"POINT (1756617.4606 5913269.6152)",142000,Hillsborough North (Auckland),1.29279528,1.29279528,1756617.46055,5913269.61515,-36.91359172,174.75815493,1756617.4606,5913269.6152
"POINT (1755639.7009 5912589.0319)",142100,Hillsborough West (Auckland),0.84158981,0.84158981,1755639.70085,5912589.0319,-36.91988593,174.74732339,1755639.7009,5912589.0319
"POINT (1759763.8492 5915654.3774)",142200,Greenlane North,1.14324419,1.14324419,1759763.8492,5915654.3774,-36.89157675,174.7929571,1759763.8492,5915654.3774
"POINT (1754974.1016 5911937.0197)",142300,Waikowhai North,0.69810774,0.69810774,1754974.10155,5911937.0197,-36.92587047,174.73998756,1754974.1016,5911937.0197
"POINT (1762335.0718 5917327.8677)",142400,Remuera East,0.88580134,0.88580134,1762335.07175,5917327.8677,-36.8760597,174.82144132,1762335.0718,5917327.8677
"POINT (1755582.5345 5911469.9415)",142500,Waikowhai South,1.35684679,1.35684679,1755582.5345,5911469.9415,-36.92997876,174.74691198,1755582.5345,5911469.9415
"POINT (1757619.0903 5913639.8545)",142600,Royal Oak West (Auckland),0.81143579,0.81143579,1757619.09025,5913639.85445,-36.91008886,174.76931709,1757619.0903,5913639.8545
"POINT (1764984.6729 5919378.9133)",142700,Saint Heliers West,1.18574088,1.18574088,1764984.6729,5919378.91325,-36.85712066,174.85071062,1764984.6729,5919378.9133
"POINT (1758785.1328 5914599.6123)",142800,One Tree Hill,2.74928149,2.74928149,1758785.1328,5914599.61225,-36.90124562,174.78219928,1758785.1328,5914599.6123
"POINT (1756458.0651 5912574.7436)",142900,Hillsborough East (Auckland),0.62787049,0.62787049,1756458.06505,5912574.7436,-36.91987919,174.75650998,1756458.0651,5912574.7436
"POINT (1765996.0215 5919890.1504)",143000,Saint Heliers North,1.33837279,1.33837279,1765996.02145,5919890.1504,-36.85233733,174.86193821,1765996.0215,5919890.1504
"POINT (1761574.2505 5916363.599)",143100,Remuera Abbotts Park,1.02250692,1.02250692,1761574.2505,5916363.599,-36.88487835,174.81311405,1761574.2505,5916363.599
"POINT (1763735.8899 5917997.43)",143200,Meadowbank East,0.65235233,0.65235233,1763735.8899,5917997.43005,-36.86978506,174.83700703,1763735.8899,5917997.43
"POINT (1761059.5283 5915582.1946)",143300,Ellerslie Central,1.49407522,1.49407522,1761059.52825,5915582.19455,-36.89200686,174.80750671,1761059.5283,5915582.1946
"POINT (1758263.2929 5913442.3159)",143400,Royal Oak East (Auckland),0.64096806,0.64096806,1758263.2929,5913442.31585,-36.91176082,174.77658657,1758263.2929,5913442.3159
"POINT (1765470.9591 5918611.3746)",143500,Saint Heliers South,1.22213447,1.22213447,1765470.95905,5918611.37455,-36.86395106,174.85633024,1765470.9591,5918611.3746
"POINT (1756363.0605 5911883.9293)",143600,Hillsborough South (Auckland),1.15992616,1.15992616,1756363.06055,5911883.92925,-36.92611941,174.75558659,1756363.0605,5911883.9293
"POINT (1763411.1338 5916640.9893)",143700,Saint Johns West,1.04254909,1.04254909,1763411.13375,5916640.9893,-36.88206283,174.83365741,1763411.1338,5916640.9893
"POINT (1760265.5078 5914616.7089)",143800,Greenlane South,0.85269356,0.85269356,1760265.50775,5914616.7089,-36.90084121,174.79880394,1760265.5078,5914616.7089
"POINT (1762856.0561 5916563.8087)",143900,Remuera Waiatarua,1.57029302,1.57029302,1762856.05605,5916563.80865,-36.88285416,174.82744827,1762856.0561,5916563.8087
"POINT (1767039.0145 5919529.2974)",144000,Glendowie North,2.04093198,2.04093198,1767039.01445,5919529.2974,-36.85540475,174.87371093,1767039.0145,5919529.2974
"POINT (1758035.8411 5912570.3561)",144100,Onehunga West,1.12216103,1.12216103,1758035.84105,5912570.3561,-36.91965553,174.77421645,1758035.8411,5912570.3561
"POINT (1760921.7387 5914811.8593)",144200,Ellerslie West,0.39993535,0.39993535,1760921.73865,5914811.8593,-36.89897117,174.80612464,1760921.7387,5914811.8593
"POINT (1759166.555 5913368.9388)",144300,Onehunga North,0.77236244,0.77236244,1759166.555,5913368.9388,-36.91226992,174.78673711,1759166.555,5913368.9388
"POINT (1762266.0217 5915525.7058)",144400,Ellerslie East,0.75498159,0.75498159,1762266.0217,5915525.7058,-36.89230912,174.8210526,1762266.0217,5915525.7058
"POINT (1764533.1897 5917351.387)",144500,Saint Johns East,0.60554145,0.60554145,1764533.18965,5917351.38695,-36.87546729,174.84608811,1764533.1897,5917351.387
"POINT (1778425.1792 5926816.0829)",144600,Oneroa West,8.42001024,8.42001024,1778425.17915,5926816.0829,-36.78767524,174.99965402,1778425.1792,5926816.0829
"POINT (1765503.6538 5917588.5353)",144700,Glen Innes West,1.36746205,1.36746205,1765503.6538,5917588.53525,-36.873161,174.85691995,1765503.6538,5917588.5353
"POINT (1761758.1755 5914601.6452)",144800,Ellerslie South,0.82740695,0.82740695,1761758.17545,5914601.64515,-36.90072215,174.8155531,1761758.1755,5914601.6452
"POINT (1763719.4807 5916111.4767)",144900,Stonefields West,0.54220765,0.54220765,1763719.48065,5916111.4767,-36.88678029,174.83723014,1763719.4807,5916111.4767
"POINT (1759183.0015 5912539.3608)",145000,Onehunga Central,0.86447109,0.86447109,1759183.00145,5912539.36075,-36.91974178,174.78709609,1759183.0015,5912539.3608
"POINT (1766441.8116 5918513.6904)",145100,Glendowie South,2.01342959,2.01342959,1766441.81165,5918513.69035,-36.8646606,174.8672379,1766441.8116,5918513.6904
"POINT (1760375.8171 5913367.2845)",145200,Oranga,0.66853336,0.66853336,1760375.8171,5913367.28445,-36.91207992,174.80030606,1760375.8171,5913367.2845
"POINT (1762999.2536 5915337.004)",145300,Mount Wellington North West,0.92460656,0.92460656,1762999.2536,5915337.00395,-36.89388294,174.82931818,1762999.2536,5915337.004
"POINT (1764932.163 5916434.9501)",145400,Panmure Glen Innes Industrial,2.01305756,2.01305756,1764932.16295,5916434.95005,-36.88365468,174.85076184,1764932.163,5916434.9501
"POINT (1759864.1983 5911824.3456)",145500,Onehunga-Te Papapa Industrial,2.94146082,2.94146082,1759864.19825,5911824.34565,-36.92606886,174.79489131,1759864.1983,5911824.3456
"POINT (1760022.1159 5912646.0229)",145600,Te Papapa,0.71125763,0.71125763,1760022.11585,5912646.0229,-36.91863866,174.79648981,1760022.1159,5912646.0229
"POINT (1764192.5124 5915870.96)",145700,Stonefields East,0.44566631,0.44566631,1764192.5124,5915870.95995,-36.88886515,174.84258802,1764192.5124,5915870.96
"POINT (1766775.7502 5917514.7019)",145800,Glen Innes East-Wai O Taiki Bay,1.39731695,1.39731695,1766775.75025,5917514.70185,-36.87360239,174.87120197,1766775.7502,5917514.7019
"POINT (1762344.2461 5912451.0733)",145900,Penrose,6.42109891,6.42109891,1762344.24605,5912451.07325,-36.91999811,174.82258914,1762344.2461,5912451.0733
"POINT (1764213.7003 5915300.1115)",146000,Mount Wellington North East,0.72698014,0.72698014,1764213.70035,5915300.1115,-36.89400476,174.84294936,1764213.7003,5915300.1115
"POINT (1757491.4864 5909456.2917)",146100,Mangere Bridge Ambury,3.14003429,3.14003429,1757491.4864,5909456.29165,-36.94780505,174.76875626,1757491.4864,5909456.2917
"POINT (1763201.0188 5914418.7913)",146200,Mount Wellington Ferndale,0.85764389,0.85764389,1763201.01875,5914418.79135,-36.90212113,174.83177929,1763201.0188,5914418.7913
"POINT (1766230.0424 5916385.9745)",146300,Point England,1.49144741,1.49144741,1766230.0424,5916385.97445,-36.88386826,174.86532955,1766230.0424,5916385.9745
"POINT (1769709.1827 5918890.2768)",146400,Bucklands Beach North,1.38358083,1.38358083,1769709.1827,5918890.27675,-36.86068628,174.9037907,1769709.1827,5918890.2768
"POINT (1763831.9875 5914477.0313)",146500,Mount Wellington East,0.59950667,0.59950667,1763831.9875,5914477.0313,-36.90148701,174.83884542,1763831.9875,5914477.0313
"POINT (1762819.2829 5913422.0283)",146600,Mount Wellington West,0.77910143,0.77910143,1762819.28285,5913422.0283,-36.91116791,174.82771093,1762819.2829,5913422.0283
"POINT (1764361.715 5914670.0942)",146700,Panmure West,0.64310957,0.64310957,1764361.71495,5914670.09415,-36.89965538,174.84474639,1764361.715,5914670.0942
"POINT (1759262.0298 5909893.302)",146800,Mangere Bridge,1.61801696,1.61801696,1759262.02975,5909893.30195,-36.94356976,174.78854005,1759262.0298,5909893.302
"POINT (1783133.0756 5927648.7168)",146900,Oneroa East-Palm Beach,3.67314986,3.67314986,1783133.07555,5927648.71675,-36.77927556,175.05218612,1783133.0756,5927648.7168
"POINT (1765897.5583 5915133.0028)",147000,Tamaki,1.29535319,1.29535319,1765897.5583,5915133.0028,-36.89521581,174.86187464,1765897.5583,5915133.0028
"POINT (1765747.069 5914351.3182)",147100,Panmure East,1.01366203,1.01366203,1765747.06895,5914351.31815,-36.9022851,174.86035751,1765747.069,5914351.3182
"POINT (1764330.7627 5913707.2173)",147200,Mount Wellington Central,1.20738713,1.20738713,1764330.7627,5913707.21735,-36.90833619,174.84460805,1764330.7627,5913707.2173
"POINT (1793567.9062 5925326.874)",147300,Bays Waiheke Island,0,35.91134403,1793567.9062,5925326.874,-36.79811715,175.16963457,1793567.9062,5925326.874
"POINT (1763949.927 5912991.3668)",147400,Sylvia Park,0.55720563,0.55720563,1763949.927,5912991.36675,-36.91485222,174.84049019,1763949.927,5912991.3668
"POINT (1759004.7502 5908905.2469)",147500,Mangere Mountain View,1.69738429,1.69738429,1759004.75025,5908905.2469,-36.95251573,174.7858599,1759004.7502,5908905.2469
"POINT (1781099.9055 5925820.7193)",147600,Surfdale,2.61127994,2.61127994,1781099.90545,5925820.71925,-36.79613493,175.02985004,1781099.9055,5925820.7193
"POINT (1764929.5408 5912349.9258)",147700,Mount Wellington Industrial,3.33330808,3.33330808,1764929.54075,5912349.92575,-36.92046064,174.85162182,1764929.5408,5912349.9258
"POINT (1769016.7289 5916091.7966)",147800,Half Moon Bay West,1.13580706,1.28096434,1769016.7289,5916091.79655,-36.88602382,174.89665015,1769016.7289,5916091.7966
"POINT (1757873.8579 5904865.7041)",147900,Auckland Airport,23.07816449,23.07816449,1757873.85785,5904865.70405,-36.9891029,174.77400859,1757873.8579,5904865.7041
"POINT (1770538.2493 5917091.3772)",148000,Eastern Beach,1.18089038,1.18089038,1770538.24925,5917091.3772,-36.87674433,174.91349074,1770538.2493,5917091.3772
"POINT (1766832.7317 5913639.2234)",148100,Sunnyhills West-Pakuranga North,1.62660244,1.62660244,1766832.73165,5913639.2234,-36.9085095,174.87269402,1766832.7317,5913639.2234
"POINT (1761068.3001 5909234.1995)",148200,Favona North,1.10911439,1.10911439,1761068.3001,5909234.1995,-36.94920111,174.80895608,1761068.3001,5909234.1995
"POINT (1770010.9377 5916739.094)",148300,Bucklands Beach Central,0.57859096,0.57859096,1770010.9377,5916739.094,-36.88001336,174.9076561,1770010.9377,5916739.094
"POINT (1767851.4027 5915066.8794)",148400,Farm Cove,0.97579917,0.97579917,1767851.4027,5915066.8794,-36.89546599,174.88380665,1767851.4027,5915066.8794
"POINT (1759807.8549 5908145.2168)",148500,Mangere North,0.71610265,0.71610265,1759807.8549,5908145.21675,-36.95922768,174.7950367,1759807.8549,5908145.2168
"POINT (1760266.6147 5908502.745)",148600,Favona West,0.85944157,0.85944157,1760266.6147,5908502.745,-36.95592834,174.80011155,1760266.6147,5908502.745
"POINT (1783102.9163 5926166.0891)",148700,Ostend,3.91381801,3.91381801,1783102.91625,5926166.0891,-36.79263832,175.05220466,1783102.9163,5926166.0891
"POINT (1769755.1726 5916029.1532)",148800,Half Moon Bay North East,0.64603014,0.64603014,1769755.1726,5916029.1532,-36.88645568,174.90494659,1769755.1726,5916029.1532
"POINT (1759347.3205 5907441.7726)",148900,Mangere West,0.94253489,0.94253489,1759347.32045,5907441.77255,-36.96564384,174.79001448,1759347.3205,5907441.7726
"POINT (1766467.1259 5912571.9243)",149000,Pakuranga West,1.39204826,1.39204826,1766467.12585,5912571.92425,-36.91819021,174.86882676,1766467.1259,5912571.9243
"POINT (1764402.6277 5911175.8499)",149100,Mount Wellington South West,0.69676276,0.69676276,1764402.6277,5911175.84985,-36.93113094,174.8459642,1764402.6277,5911175.8499
"POINT (1768515.6572 5914397.3318)",149200,Sunnyhills East,0.87367206,0.87367206,1768515.6572,5914397.3318,-36.90137998,174.89140685,1768515.6572,5914397.3318
"POINT (1769521.18 5915122.5518)",149300,Half Moon Bay South East,0.83429938,0.83429938,1769521.18,5915122.55175,-36.89466587,174.90252487,1769521.18,5915122.5518
"POINT (1761225.3993 5908489.1101)",149400,Favona East,0.63568423,0.63568423,1761225.39925,5908489.11005,-36.95588747,174.81087863,1761225.3993,5908489.1101
"POINT (1765255.8987 5911618.7556)",149500,Mount Wellington South East,0.67318677,0.67318677,1765255.89865,5911618.7556,-36.92699118,174.85544369,1765255.8987,5911618.7556
"POINT (1762760.6441 5909094.3333)",149600,Otahuhu Industrial,1.84535251,1.84535251,1762760.6441,5909094.33325,-36.9501703,174.82798415,1762760.6441,5909094.3333
"POINT (1770482.1676 5915642.5097)",149700,Bucklands Beach South,1.12045176,1.12045176,1770482.16755,5915642.5097,-36.88980813,174.91318756,1770482.1676,5915642.5097
"POINT (1767275.0993 5912942.8663)",149800,Pakuranga Central,1.12595262,1.12595262,1767275.09925,5912942.86625,-36.91470511,174.87781101,1767275.0993,5912942.8663
"POINT (1744943.7228 5887251.9874)",149900,Awhitu,221.55844737,221.55844737,1744943.7228,5887251.9874,-37.14989636,174.63216856,1744943.7228,5887251.9874
"POINT (1761157.5346 5907844.2391)",150000,Harania North,0.94437248,0.94437248,1761157.53455,5907844.23905,-36.96170937,174.8102543,1761157.5346,5907844.2391
"POINT (1763496.5134 5910014.13)",150100,Otahuhu Central,1.26371643,1.26371643,1763496.5134,5910014.13,-36.94175556,174.83604598,1763496.5134,5910014.13
"POINT (1760120.1332 5906831.2424)",150200,Mangere Central,1.44492264,1.44492264,1760120.1332,5906831.2424,-36.97101355,174.79882139,1760120.1332,5906831.2424
"POINT (1764499.1077 5910379.9288)",150300,Otahuhu North,0.72481482,0.72481482,1764499.10765,5910379.9288,-36.93828521,174.84722011,1764499.1077,5910379.9288
"POINT (1771063.441 5915253.9537)",150400,Howick West,1.19261311,1.19261311,1771063.44095,5915253.9537,-36.89320364,174.91979511,1771063.441,5915253.9537
"POINT (1768244.5525 5913268.1647)",150500,Pakuranga Heights North West,0.76233989,0.76233989,1768244.5525,5913268.16465,-36.91160179,174.88861633,1768244.5525,5913268.1647
"POINT (1772022.2796 5915905.4754)",150600,Mellons Bay,1.67597292,1.67597292,1772022.27955,5915905.4754,-36.88715946,174.93040248,1772022.2796,5915905.4754
"POINT (1769179.5752 5913579.7162)",150700,Pakuranga Heights East,1.79066061,1.79066061,1769179.57515,5913579.7162,-36.90862754,174.89903753,1769179.5752,5913579.7162
"POINT (1762214.6137 5908155.1558)",150800,Sutton Park,0.73066561,0.73066561,1762214.6137,5908155.15575,-36.95872645,174.82205607,1762214.6137,5908155.1558
"POINT (1765886.9903 5910970.27)",150900,Otahuhu East,0.78748523,0.78748523,1765886.9903,5910970.26995,-36.93272301,174.8626682,1765886.9903,5910970.27
"POINT (1759776.6441 5905978.0907)",151000,Mangere South,0.83312102,0.83312102,1759776.64405,5905978.0907,-36.97875887,174.79514489,1759776.6441,5905978.0907
"POINT (1785432.5183 5925759.9661)",151100,Onetangi,5.96163345,5.96163345,1785432.5183,5925759.9661,-36.79584373,175.07839806,1785432.5183,5925759.9661
"POINT (1761535.1454 5907194.2562)",151200,Harania South,0.77647517,0.77647517,1761535.1454,5907194.25615,-36.96750095,174.81463304,1761535.1454,5907194.2562
"POINT (1770108.894 5913993.6458)",151300,Highland Park (Auckland),1.37635731,1.37635731,1770108.894,5913993.6458,-36.90473104,174.90937089,1770108.894,5913993.6458
"POINT (1763831.2399 5908852.0914)",151400,Otahuhu South West,1.24162382,1.24162382,1763831.2399,5908852.09135,-36.95216719,174.84005503,1763831.2399,5908852.0914
"POINT (1768063.4742 5912355.8749)",151500,Pakuranga Heights South West,0.97371434,0.97371434,1768063.47415,5912355.8749,-36.9198535,174.88678719,1768063.4742,5912355.8749
"POINT (1761061.9001 5906561.2639)",151600,Mangere Mascot,0.78432156,0.78432156,1761061.90005,5906561.26395,-36.97328531,174.80945421,1761061.9001,5906561.2639
"POINT (1789850.515 5925425.5864)",151700,Waiheke East,87.58062844,87.58062844,1789850.515,5925425.58635,-36.79798055,175.12796937,1789850.515,5925425.5864
"POINT (1762413.5682 5907418.6087)",151800,Massey Road West,0.6935197,0.6935197,1762413.56815,5907418.6087,-36.96532836,174.82444816,1762413.5682,5907418.6087
"POINT (1764724.5213 5909386.7736)",151900,Otahuhu South,0.81751878,0.81751878,1764724.5213,5909386.77355,-36.94719396,174.84996655,1764724.5213,5909386.7736
"POINT (1771396.5974 5914579.1729)",152000,Howick Central,0.8576312,0.8576312,1771396.5974,5914579.1729,-36.89922262,174.92368474,1771396.5974,5914579.1729
"POINT (1763142.5185 5907551.8796)",152100,Massey Road North,0.85966762,0.85966762,1763142.51845,5907551.87955,-36.96400152,174.83260412,1763142.5185,5907551.8796
"POINT (1770523.6011 5913450.6314)",152200,Botany Downs West,0.81388434,0.81388434,1770523.60115,5913450.6314,-36.90954846,174.91414564,1770523.6011,5913450.6314
"POINT (1768053.5309 5910316.1539)",152300,East Tamaki,7.77487822,7.77487822,1768053.53095,5910316.1539,-36.93823242,174.88712871,1768053.5309,5910316.1539
"POINT (1771990.1732 5914382.5321)",152400,Howick East,1.10919825,1.10919825,1771990.17315,5914382.5321,-36.90088621,174.930388,1771990.1732,5914382.5321
"POINT (1769006.6458 5912045.5303)",152500,Burswood,0.52549252,0.52549252,1769006.64575,5912045.5303,-36.92248095,174.89743987,1769006.6458,5912045.5303
"POINT (1762205.3952 5906698.2986)",152600,Massey Road South,0.32471635,0.32471635,1762205.39515,5906698.29855,-36.97185419,174.8222655,1762205.3952,5906698.2986
"POINT (1764081.6726 5907928.5046)",152700,Middlemore,0.72022213,0.72022213,1764081.67255,5907928.5046,-36.96044494,174.84306701,1764081.6726,5907928.5046
"POINT (1762633.8182 5905013.587)",152800,Mangere South East,4.33120515,4.33120515,1762633.81815,5905013.587,-36.98695925,174.82743938,1762633.8182,5905013.587
"POINT (1771202.2875 5913382.5605)",152900,Botany Downs East,0.67735204,0.67735204,1771202.28745,5913382.56055,-36.91003877,174.92177547,1771202.2875,5913382.5605
"POINT (1764639.8765 5907548.574)",153000,Grange,1.43178144,1.43178144,1764639.87645,5907548.57395,-36.96377055,174.84941695,1764639.8765,5907548.574
"POINT (1769932.7954 5912142.243)",153100,Golflands,1.40769231,1.40769231,1769932.7954,5912142.243,-36.92144309,174.90781082,1769932.7954,5912142.243
"POINT (1762595.3077 5906498.0408)",153200,Aorere North,0.33000405,0.33000405,1762595.30765,5906498.04075,-36.97359119,174.82668701,1762595.3077,5906498.0408
"POINT (1763715.8996 5906952.6687)",153300,Mangere East,0.86872274,0.86872274,1763715.8996,5906952.66865,-36.96930074,174.8391719,1763715.8996,5906952.6687
"POINT (1773146.4383 5914717.6274)",153400,Cockle Bay,1.72842716,1.72842716,1773146.43825,5914717.62735,-36.89765568,174.94328238,1773146.4383,5914717.6274
"POINT (1766075.2845 5908393.0181)",153500,Otara West,1.55637466,1.55637466,1766075.28445,5908393.0181,-36.95591017,174.86534764,1766075.2845,5908393.0181
"POINT (1762913.1981 5906136.4794)",153600,Aorere Central,0.62009558,0.62009558,1762913.19805,5906136.4794,-36.97679381,174.83033475,1762913.1981,5906136.4794
"POINT (1771248.8504 5912581.257)",153700,Northpark North,0.86166842,0.86166842,1771248.85035,5912581.257,-36.91724964,174.92247912,1771248.8504,5912581.257
"POINT (1772280.9996 5913105.0565)",153800,Somerville,1.556066,1.556066,1772280.99955,5913105.0565,-36.91234246,174.93394109,1772280.9996,5913105.0565
"POINT (1770696.0459 5911987.1826)",153900,Northpark South,0.70661609,0.70661609,1770696.04585,5911987.18255,-36.9227022,174.91641035,1770696.0459,5911987.1826
"POINT (1764619.4871 5906754.2071)",154000,Papatoetoe North,0.99327077,0.99327077,1764619.4871,5906754.20705,-36.97093119,174.8493612,1764619.4871,5906754.2071
"POINT (1765644.9997 5907573.1316)",154100,Dingwall,0.8271738,0.8271738,1765644.9997,5907573.13155,-36.96337293,174.86069682,1765644.9997,5907573.1316
"POINT (1763546.3443 5905612.0811)",154200,Aorere South,1.23946499,1.23946499,1763546.3443,5905612.0811,-36.98140868,174.83755849,1763546.3443,5905612.0811
"POINT (1773404.6941 5913529.9842)",154300,Shelly Park,1.23160322,1.23160322,1773404.6941,5913529.98415,-36.90830816,174.94645122,1773404.6941,5913529.9842
"POINT (1767093.1706 5908370.3202)",154400,Otara Central,1.52354042,1.52354042,1767093.17055,5908370.32015,-36.95593456,174.87677994,1767093.1706,5908370.3202
"POINT (1769832.1461 5910764.8209)",154500,Huntington Park,0.43629701,0.43629701,1769832.1461,5910764.82095,-36.93387117,174.90699061,1769832.1461,5910764.8209
"POINT (1770305.41 5911055.2546)",154600,Botany Central,0.46967107,0.46967107,1770305.40995,5911055.2546,-36.93116908,174.91223666,1770305.41,5911055.2546
"POINT (1771555.8035 5911712.1912)",154700,Botany North,0.92492593,0.92492593,1771555.8035,5911712.19115,-36.92502363,174.92612028,1771555.8035,5911712.1912
"POINT (1764345.5745 5905743.9718)",154800,Papatoetoe West,1.22430286,1.22430286,1764345.5745,5905743.9718,-36.98008106,174.84650545,1764345.5745,5905743.9718
"POINT (1765381.1453 5906330.2376)",154900,Papatoetoe Central,1.45738387,1.45738387,1765381.14525,5906330.23765,-36.97461746,174.85800659,1765381.1453,5906330.2376
"POINT (1778042.2355 5916284.6801)",155000,Sunkist Bay,1.52795082,1.52795082,1778042.2355,5916284.6801,-36.88262674,174.99783159,1778042.2355,5916284.6801
"POINT (1767938.6296 5908463.7625)",155100,Otara East,0.86784541,0.86784541,1767938.6296,5908463.76245,-36.95494224,174.88625064,1767938.6296,5908463.7625
"POINT (1769658.4512 5909739.6159)",155200,Redcastle,0.55559047,0.55559047,1769658.45115,5909739.61585,-36.94313907,174.90527124,1769658.4512,5909739.6159
"POINT (1771226.0542 5910920.1249)",155300,Botany East,0.78144969,0.78144969,1771226.0542,5910920.12485,-36.93221968,174.92259922,1771226.0542,5910920.1249
"POINT (1770458.9812 5910229.4704)",155400,Botany South,0.74938028,0.74938028,1770458.9812,5910229.4704,-36.9385812,174.91414624,1770458.9812,5910229.4704
"POINT (1766365.5342 5904449.3639)",155500,Manukau Central,11.40067045,11.40067045,1766365.53415,5904449.36385,-36.99138991,174.86947528,1766365.5342,5904449.3639
"POINT (1766768.4772 5906551.6898)",155600,Papatoetoe East,1.0684957,1.0684957,1766768.4772,5906551.68975,-36.97237736,174.87353637,1766768.4772,5906551.6898
"POINT (1767033.0958 5906995.2244)",155700,Otara South,0.80187121,0.80187121,1767033.09575,5906995.2244,-36.96833434,174.87640961,1767033.0958,5906995.2244
"POINT (1767581.9735 5907224.9509)",155800,Ferguson,0.98687785,0.98687785,1767581.9735,5907224.9509,-36.966167,174.88252157,1767581.9735,5907224.9509
"POINT (1764352.5671 5904703.4033)",155900,Papatoetoe South West,0.8285968,0.8285968,1764352.56705,5904703.4033,-36.98945511,174.84681066,1764352.5671,5904703.4033
"POINT (1768833.6058 5907925.8588)",156000,Botany Junction,2.48251702,2.48251702,1768833.6058,5907925.8588,-36.95962843,174.89641804,1768833.6058,5907925.8588
"POINT (1770270.8053 5909427.4255)",156100,Dannemora North,0.54899463,0.54899463,1770270.8053,5909427.42545,-36.94584124,174.91221484,1770270.8053,5909427.4255
"POINT (1766199.1024 5905995.2069)",156200,Papatoetoe South,0.79596426,0.79596426,1766199.10235,5905995.20695,-36.97749183,174.86726543,1766199.1024,5905995.2069
"POINT (1771193.3008 5909858.8743)",156300,East Tamaki Heights,1.23138113,1.23138113,1771193.3008,5909858.87425,-36.9417869,174.92247188,1771193.3008,5909858.8743
"POINT (1778485.3522 5914755.6483)",156400,Te Puru,7.2901401,7.39063529,1778485.3522,5914755.6483,-36.89631822,175.00316112,1778485.3522,5914755.6483
"POINT (1765748.9718 5905332.2107)",156500,Puhinui North,0.70328268,0.70328268,1765748.9718,5905332.2107,-36.98354464,174.86235623,1765748.9718,5905332.2107
"POINT (1770033.3507 5908736.6294)",156600,Dannemora South,0.63838551,0.63838551,1770033.3507,5908736.6294,-36.95210786,174.90970489,1770033.3507,5908736.6294
"POINT (1765432.0061 5904726.8408)",156700,Puhinui South,0.5260906,0.5260906,1765432.00605,5904726.8408,-36.98905465,174.85892926,1765432.0061,5904726.8408
"POINT (1768170.6329 5906351.4062)",156800,Rongomai West,0.48507019,0.48507019,1768170.6329,5906351.4062,-36.97393225,174.88932555,1768170.6329,5906351.4062
"POINT (1770649.3566 5908374.5429)",156900,Baverstock,1.09060982,1.09060982,1770649.3566,5908374.5429,-36.95525862,174.91670173,1770649.3566,5908374.5429
"POINT (1766591.0149 5905460.679)",157000,Puhinui East,0.60410026,0.60410026,1766591.01485,5905460.679,-36.98223841,174.87178448,1766591.0149,5905460.679
"POINT (1777026.1726 5907263.7734)",157100,Turanga,84.96233351,84.96233351,1777026.17255,5907263.7734,-36.96408816,174.98854671,1777026.1726,5907263.7734
"POINT (1768617.3717 5906469.7173)",157200,Rongomai East,0.58097595,0.58097595,1768617.3717,5906469.71735,-36.97278636,174.89431555,1768617.3717,5906469.7173
"POINT (1770308.7413 5907396.6602)",157300,Ormiston North,2.30075808,2.30075808,1770308.7413,5907396.6602,-36.96413048,174.91309841,1770308.7413,5907396.6602
"POINT (1781607.6629 5915640.7443)",157400,Maraetai,6.88515504,6.88515504,1781607.66285,5915640.7443,-36.88774867,175.03797111,1781607.6629,5915640.7443
"POINT (1769315.9431 5906557.2274)",157500,Chapel Downs,0.76033315,0.76033315,1769315.9431,5906557.2274,-36.97187248,174.90214003,1769315.9431,5906557.2274
"POINT (1765702.4287 5902587.4026)",157600,Wiri West,8.04089146,8.04089146,1765702.42865,5902587.40265,-37.00828264,174.8624367,1765702.4287,5902587.4026
"POINT (1768495.6981 5905719.8893)",157700,Clover Park North,0.92445239,0.92445239,1768495.6981,5905719.88925,-36.97956376,174.89311669,1768495.6981,5905719.8893
"POINT (1771907.9989 5908023.5794)",157800,Mission Heights North,1.07241323,1.07241323,1771907.99885,5908023.5794,-36.95819159,174.93091114,1771907.9989,5908023.5794
"POINT (1768215.7397 5905051.8585)",157900,Clover Park South,1.18316226,1.18316226,1768215.7397,5905051.8585,-36.98563252,174.89012173,1768215.7397,5905051.8585
"POINT (1769812.3268 5905923.5032)",158000,Donegal Park,0.9076278,0.9076278,1769812.32675,5905923.50315,-36.97749254,174.90785629,1769812.3268,5905923.5032
"POINT (1770681.8249 5906075.2568)",158100,Ormiston South,1.70316998,1.70316998,1770681.82485,5906075.25685,-36.97596797,174.9175859,1770681.8249,5906075.2568
"POINT (1772005.1271 5907261.4814)",158200,Mission Heights South,0.86985025,0.86985025,1772005.1271,5907261.4814,-36.96503986,174.9321751,1772005.1271,5907261.4814
"POINT (1769781.3193 5905011.0329)",158300,Hilltop (Auckland),1.14166187,1.14166187,1769781.3193,5905011.0329,-36.98571899,174.9077134,1769781.3193,5905011.0329
"POINT (1767916.4388 5903569.9151)",158400,Wiri East,1.37110039,1.37110039,1767916.4388,5903569.9151,-36.99903763,174.88709031,1767916.4388,5903569.9151
"POINT (1768838.1888 5904086.5992)",158500,Goodwood Heights,1.28157262,1.28157262,1768838.18885,5904086.5992,-36.99421746,174.89732834,1768838.1888,5904086.5992
"POINT (1771869.2968 5905376.4575)",158600,Ormiston East,4.41466727,4.41466727,1771869.2968,5905376.45745,-36.98204749,174.93107925,1771869.2968,5905376.4575
"POINT (1765453.9507 5900797.4507)",158700,Clendon Park North,0.74920256,0.74920256,1765453.95065,5900797.45065,-37.02445325,174.8600384,1765453.9507,5900797.4507
"POINT (1766167.8483 5901123.422)",158800,Burbank,0.64850807,0.64850807,1766167.8483,5901123.422,-37.02139033,174.86798825,1766167.8483,5901123.422
"POINT (1774013.8388 5905647.0931)",158900,Tuscany Heights,6.6289288,6.6289288,1774013.8388,5905647.0931,-36.97921496,174.95509968,1774013.8388,5905647.0931
"POINT (1769081.3182 5903257.9672)",159000,Totara Heights,0.85465897,0.85465897,1769081.31825,5903257.9672,-37.0016393,174.90024498,1769081.3182,5903257.9672
"POINT (1767740.0557 5901987.526)",159100,Homai East,0.71246766,0.71246766,1767740.0557,5901987.52595,-37.0133257,174.88546124,1767740.0557,5901987.526
"POINT (1767063.6569 5901383.5115)",159200,Homai West,0.91194953,0.91194953,1767063.65685,5901383.5115,-37.01888813,174.87799595,1767063.6569,5901383.5115
"POINT (1770219.9372 5903242.8514)",159300,The Gardens (Auckland),4.08900902,4.08900902,1770219.9372,5903242.85135,-37.00156996,174.91303846,1770219.9372,5903242.8514
"POINT (1751663.7997 5888413.7611)",159400,Clarks Beach,2.67302174,2.67302174,1751663.7997,5888413.76105,-37.13836247,174.70757601,1751663.7997,5888413.7611
"POINT (1765368.1262 5899922.2403)",159500,Clendon Park West,0.59408604,0.59408604,1765368.1262,5899922.24025,-37.03235369,174.85926627,1765368.1262,5899922.2403
"POINT (1768852.6161 5902263.9527)",159600,Hillpark North,0.66048296,0.66048296,1768852.61605,5902263.95265,-37.01063595,174.89789866,1768852.6161,5902263.9527
"POINT (1765890.799 5899917.9613)",159700,Clendon Park East,0.46283705,0.46283705,1765890.79895,5899917.96125,-37.03230003,174.8651409,1765890.799,5899917.9613
"POINT (1756717.475 5888765.0803)",159800,Karaka Creek,34.78065649,34.78065649,1756717.47505,5888765.0803,-37.13436391,174.76437739,1756717.475,5888765.0803
"POINT (1766523.8456 5900320.7212)",159900,Rowandale West,0.6882183,0.6882183,1766523.84555,5900320.7212,-37.02855927,174.8721658,1766523.8456,5900320.7212
"POINT (1767306.113 5900667.7535)",160000,Rowandale East,0.83155282,0.83155282,1767306.113,5900667.7535,-37.02529361,174.88087913,1767306.113,5900667.7535
"POINT (1768257.6959 5901112.6686)",160100,Manurewa Central,1.07399259,1.07399259,1768257.6959,5901112.6686,-37.02111515,174.89147225,1768257.6959,5901112.6686
"POINT (1765890.1444 5899131.8066)",160200,Weymouth North,1.0188509,1.0188509,1765890.14435,5899131.8066,-37.03938307,174.86530684,1765890.1444,5899131.8066
"POINT (1769062.8885 5901534.4201)",160300,Hillpark South,1.08741456,1.08741456,1769062.88845,5901534.42005,-37.01717082,174.90042465,1769062.8885,5901534.4201
"POINT (1770886.3673 5902018.7921)",160400,Alfriston,1.95412196,1.95412196,1770886.3673,5902018.79205,-37.01247699,174.92080195,1770886.3673,5902018.7921
"POINT (1766988.6022 5899335.8579)",160500,Weymouth East,0.98724325,0.98724325,1766988.60215,5899335.85785,-37.03734988,174.87760685,1766988.6022,5899335.8579
"POINT (1767865.9869 5899890.4791)",160600,Leabank,1.48914276,1.48914276,1767865.9869,5899890.47905,-37.03219654,174.88734352,1767865.9869,5899890.4791
"POINT (1765668.3908 5898310.2508)",160700,Weymouth South,1.0583023,1.0583023,1765668.3908,5898310.2508,-37.04682412,174.86299551,1765668.3908,5898310.2508
"POINT (1769549.3768 5900562.6356)",160800,Manurewa East,0.82830357,0.82830357,1769549.3768,5900562.63555,-37.02583832,174.90610927,1769549.3768,5900562.6356
"POINT (1769029.958 5899957.0046)",160900,Manurewa South,1.21704652,1.21704652,1769029.95805,5899957.0046,-37.03138834,174.90040876,1769029.958,5899957.0046
"POINT (1770605.437 5901204.686)",161000,Randwick Park East,0.74726124,0.74726124,1770605.43695,5901204.68595,-37.01986261,174.91783022,1770605.437,5901204.686
"POINT (1766746.4219 5897794.3396)",161100,Wattle Downs West,1.47727217,1.47727217,1766746.4219,5897794.33955,-37.05128128,174.87522682,1766746.4219,5897794.3396
"POINT (1768521.4682 5899158.9072)",161200,Wattle Downs North,0.55995069,0.55995069,1768521.46815,5899158.9072,-37.03867016,174.89487336,1768521.4682,5899158.9072
"POINT (1770212.9977 5900503.9081)",161300,Randwick Park West,0.70415333,0.70415333,1770212.99765,5900503.90805,-37.02624737,174.91357933,1770212.9977,5900503.9081
"POINT (1761811.6627 5889772.037)",161400,Kingseat-Karaka,86.66018776,86.66018776,1761811.66265,5889772.03695,-37.12442419,174.82148593,1761811.6627,5889772.037
"POINT (1768331.4662 5898213.3337)",161500,Wattle Downs East,1.01653039,1.01653039,1768331.4662,5898213.3337,-37.04722333,174.8929496,1768331.4662,5898213.3337
"POINT (1771877.7528 5900472.7095)",161600,Takanini North,5.27797258,5.27797258,1771877.75275,5900472.7095,-37.02622521,174.93229242,1771877.7528,5900472.7095
"POINT (1770354.6059 5899685.1832)",161700,Takanini Industrial,0.88082534,0.88082534,1770354.6059,5899685.1832,-37.03359785,174.91535579,1770354.6059,5899685.1832
"POINT (1770105.1441 5898014.6247)",161800,Conifer Grove West,1.58524567,1.58524567,1770105.14405,5898014.62465,-37.0486937,174.91293014,1770105.1441,5898014.6247
"POINT (1770332.9177 5898537.9435)",161900,Conifer Grove East,0.64940367,0.64940367,1770332.9177,5898537.9435,-37.04393764,174.91537177,1770332.9177,5898537.9435
"POINT (1770852.2864 5898888.4898)",162000,Takanini West,0.68633159,0.68633159,1770852.28635,5898888.48985,-37.04068506,174.92112941,1770852.2864,5898888.4898
"POINT (1772429.3341 5898757.8517)",162100,Takanini South,2.31895061,2.31895061,1772429.3341,5898757.8517,-37.0415736,174.93888309,1772429.3341,5898757.8517
"POINT (1771251.326 5897768.9177)",162200,Takanini Central,1.07936223,1.07936223,1771251.32595,5897768.9177,-37.05069884,174.92586896,1771251.326,5897768.9177
